Mkoa,District,Kata,Kijiji,Namba ya barabara,Urefu wa barabara,Group name,Number of group members,F,M,Discount,Dis,Reg type1,Reg type2,Reg type3,Latitude,Longitude
Morogoro,Kilombero,Mlali,Mlali,,,WAKINA MAMA MAZINGIRA,25,22,3,,0,CMG,,,-7.7888941,37.0380919
Morogoro,Kilombero,Mlali,Mlali,,,WANAWAKE KUJIAMINI,16,16,0,,0,CMG,,,-7.7888436,37.038086
Morogoro,Kilombero,Mlali,Mlali,,,mapambano ,18,0,18,,0,CMG,,,-7.76674,36.9575246
Morogoro,Kilombero,Mlali,Mlali,,,mwenda pole,11,11,0,,0,CMG,,,-7.8912523,36.9527449
Morogoro,Kilombero,Mlali,Mlali,,,Temobo,23,7,16,,0,CMG,,,-7.8912973,36.9527029
Morogoro,Kilombero,Mlali,Mlali,,,JITUME GROUP MHELULE,15,5,10,,0,CBRM,,,-7.8912411,36.9527741
Morogoro,Kilombero,Mlali,Mlali,,,Hapa Kazi tu,35,25,10,,0,CMG,,,-7.8912798,36.9527248
Morogoro,Kilombero,Mlali,Mkuyuni,,,Tushikamane group Kisawasawa,18,18,0,,0,CMG,,,-7.8961196,36.875672
Morogoro,Kilombero,Mlali,Mkuyuni,,,UMOJA NI NGUVU KISAWASAWA,7,7,0,,0,CMG,,,-7.8960847,36.8756049
Morogoro,Kilombero,Mlali,Kinyenze,,,TASAF KISAWASAWA,72,30,42,,0,CBRM,,,-7.896109,36.8756506
Morogoro,Kilombero,Mlali,Kinyenze,,,MSHIKAMANO MBASA,10,10,0,,0,CMG,,,-8.111925,36.6927398
Morogoro,Kilombero,Mlali,Kinyenze,,,VIJANA FIRST BODA BODA,5,1,4,,0,CMG,,,-8.1117935,36.6926489
Morogoro,Kilombero,Mlali,Kinyenze,,,MAMA BORESHA MAISHA,14,14,0,,0,CMG,,,-8.1118764,36.6926383
Morogoro,Kilombero,Mlali,Kinyenze,,,WANAWAKE NA MAENDELEO,16,16,0,,0,CMG,,,-8.1118832,36.692731
Morogoro,Kilombero,Ifakara Mjini,Nduna,,,MUUNGANO WAJASILIAMALI,6,0,6,,0,CMG,,,-8.1388323,36.6784728
Morogoro,Kilombero,Ifakara Mjini,Nduna,,,TWENDE SAWA - IFAKARA,26,26,0,,0,CMG,,,-8.1389074,36.6783318
Morogoro,Kilombero,Ifakara Mjini,Nduna,,,VIJANA MKOMBOZI,12,0,12,,0,CMG,,,-8.1388946,36.6783745
Morogoro,Kilombero,Ifakara Mjini,Nduna,,,TTCIA WANAWAKE,15,15,0,,0,CMG,,,-8.1393239,36.6786997
Morogoro,Kilombero,Ifakara Mjini,Nduna,,,WAKWETU GROUP,10,0,10,,0,CMG,,,-8.1389222,36.6785024
Morogoro,Kilombero,Ifakara Mjini,Nduna,,,MSHIKAMANO,10,0,10,,0,CMG,,,-8.138834,36.6783896
Morogoro,Kilombero,Ifakara Mjini,Nduna,,,VIJANA MSHIKAMANO GROUP,6,2,4,,0,CMG,,,-8.1389431,36.6784492
Morogoro,Kilombero,Ifakara Mjini,,,,Vijana Lioki,5,1,4,,0,CMG,,,-8.0725555,36.6545723
Morogoro,Kilombero,Ifakara Mjini,,,,AKINA MAMA BOMANI,18,18,0,,0,CMG,,,-8.078202,36.6840795
Morogoro,Kilombero,Ifakara Mjini,,,,Mitumba Site,15,11,4,,0,CMG,,,-8.0781549,36.6841526
Morogoro,Kilombero,Ifakara Mjini,,,,Vijana Boda boda Tazara,5,0,5,,0,CMG,,,-8.0781948,36.6841331
Morogoro,Kilombero,Ifakara Mjini,,,,Vijana bodaboda mjimpya,5,0,5,,0,CMG,,,-8.0781827,36.6841612
Morogoro,Kilombero,Ifakara Mjini,,,,Graduators 2005,6,2,4,,0,CMG,,,-8.078245,36.684192
Morogoro,Kilombero,Ifakara Mjini,,,,Umoja ni nguvu,8,8,0,,0,CMG,,,-8.0780929,36.6842353
Morogoro,Kilombero,Utengule,Mpanga,,,Vijana Bodaboda Mpanga,6,0,6,,0,CMG,CBO,,-8.9247624,35.8131203
Morogoro,Kilombero,Utengule,Mpanga,,,Mpanga Road Service,20,3,17,,0,TARURA SPECIAL GROUP,,,-8.9247625,35.8131032
Morogoro,Kilombero,Utengule,Mpanga,,,Maendeleo Mpanga,22,22,0,,0,CMG,CBO,,-8.9247309,35.8130527
Morogoro,Kilombero,Utengule,Mpanga,,,Salanga - Mpanga,11,10,1,,0,CMG,,,-8.9247509,35.8130896
Morogoro,Kilombero,Utengule,Mpanga,,,Vambia Mpanga,10,6,4,,0,CMG,,,-8.9247771,35.8131309
Morogoro,Kilombero,Utengule,Mpanga,,,Jipemoyo - Mpanga,25,25,0,,0,CMG,CBO,,-8.924818,35.8131117
Morogoro,Kilombero,Utengule,Mpanga,,,Twitange Mpanga,19,19,0,,0,CMG,CBO,,-8.9247607,35.8131587
Morogoro,Kilombero,Idete,Miwangani,,,Kizazi Kipya TASAF,15,10,5,,0,USHIRIKA,,,-8.1481144,36.5056066
Morogoro,Kilombero,Idete,Miwangani,,,Akina Mama Tunaweza,10,10,0,,0,CMG,,,-8.1480964,36.5055939
Morogoro,Kilombero,Idete,Miwangani,,,Baraka,30,21,9,,0,CMG,CBO,,-8.148081,36.5055562
Morogoro,Kilombero,Idete,Miwangani,,,Jitume,14,13,1,,0,USHIRIKA,,,-8.1480836,36.505611
Morogoro,Kilombero,Idete,Miwangani,,,Tutaweza,13,12,1,,0,USHIRIKA,,,-8.1480709,36.5055824
Morogoro,Kilombero,Mngeta,Mkangawalo,,,Umoja Ilole,13,13,0,,0,CMG,,,-8.3732322,36.0890088
Morogoro,Kilombero,Mngeta,Mkangawalo,,,Dhiki na Faraja,22,22,0,,0,CMG,,,-8.3732677,36.089004
Morogoro,Kilombero,Mngeta,Mkangawalo,,,Wote ni Wamoja,7,7,0,,0,CMG,,,-8.3731959,36.0891126
Morogoro,Kilombero,Mngeta,Itongowa,,,Bodaboda Miti B,6,3,3,,0,CMG,,,-8.3551861,36.0744841
Morogoro,Kilombero,Mngeta,Itongowa,,,Vijana Nguvu Moja,5,5,0,,0,CMG,,,-8.3552195,36.07457
Morogoro,Kilombero,Mngeta,Itongowa,,,Ushirikiano Itongowa,8,8,0,,0,CMG,,,-8.355249,36.0745573
Morogoro,Kilombero,Mngeta,Itongowa,,,Vijana Wise,5,3,2,,0,CMG,,,-8.355242,36.0745538
Morogoro,Kilombero,Mngeta,Itongowa,,,Bodaboda Miti Miwili,5,0,5,,0,CMG,CBO,,-8.3552391,36.0745589
Morogoro,Kilombero,Mngeta,Itongowa,,,Bodaboda Mtongowa,27,3,24,,0,CMG,CBO,,-8.3552433,36.0745621
Morogoro,Kilombero,Mngeta,Itongowa,,,Faraja Salaam Club,10,10,0,,0,CMG,CBO,,-8.3552338,36.0744666
Morogoro,Kilombero,Mngeta,Ikule,,,Bodaboda Kikoleko Ikule,11,5,6,,0,CBO,,,-8.4127513,36.0103741
Morogoro,Kilombero,Mngeta,Ikule,,,Tupendane,10,9,1,,0,CMG,,,-8.4127349,36.0103889
Morogoro,Kilombero,Ifakara Mjini,Nduna,,,WAPENDANAO ,25,21,4,,0,CMG,,,-7.6791813,36.9691491
Morogoro,Kilombero,Mwaya,Mgudeni,,,TASAF MGUDENI,36,30,6,,0,CBRM,,,-7.8643659,36.8901578
Morogoro,Kilombero,Mwaya,Kiswanya,,,TASAF MWAYA,28,14,14,,0,CBRM,,,-7.8642352,36.8901549
Morogoro,Kilombero,Mwaya,Mgudeni,,,UMOJA NI NGUVU NGUDENI,22,11,11,,0,TARURA SPECIAL GROUP,,,-7.8642905,36.8901398
Morogoro,Kilombero,Mwaya,Kiswanya,,,KAZI GROUP KISWANYA,28,10,18,,0,TARURA SPECIAL GROUP,,,-7.8642947,36.890179
Morogoro,Kilombero,Mwaya,Mgudeni,,,BODABODA AMANI UTULIVU,9,0,9,,0,CMG,,,-7.8643256,36.8901794
Morogoro,Kilombero,Mwaya,Mgudeni,,,MAKIMINYU MWAYA,30,30,0,,0,CMG,,,-7.8643382,36.8901789
Morogoro,Kilombero,Utengule,Mpanga,,,Umoja Mpanga,15,10,5,,0,TARURA SPECIAL GROUP,,,-7.9343056,36.9136694
Morogoro,Mvomero,Melela,Melala,,,Ujamaa _ Melela,14,6,8,,0,CMG,,,-6.9200837,37.4303859
Morogoro,Mvomero,Melela,Melala,,,Juhudi Worth Yetu,15,15,0,,0,CMG,,,-6.9200837,37.4303859
Morogoro,Mvomero,Melela,Melala,,,Melela Nyuki group,20,11,9,,0,CMG,,,-6.9200837,37.4303859
Morogoro,Mvomero,Melela,Melala,,,Melela Women group,9,9,0,,0,CMG,,,-6.9200837,37.4303859
Morogoro,Mvomero,Melela,Melala,,,Mwanzo Mgumu,30,30,0,,0,CMG,,,-6.9200837,37.4303859
Morogoro,Mvomero,Melela,Melala,,,Hapa Kazi,30,30,0,,0,CMG,,,-6.9200837,37.4303859
Morogoro,Mvomero,Melela,Melala,,,Melela Youth Enterprises,20,8,12,,0,CMG,,,-6.9200837,37.4303859
Morogoro,Mvomero,Mangae,Mella,,,Umoja wa kina mama Wamasai,14,14,0,,0,CMG,,,-6.8602253,37.3778676
Morogoro,Mvomero,Mangae,Mella,,,Namnyake,24,24,0,,0,CMG,,,-6.8602738,37.3778862
Morogoro,Mvomero,Mangae,Mella,,,Napupo,19,19,0,,0,CMG,,,-6.8602304,37.3778334
Morogoro,Mvomero,Doma,Kihondo,,,Ushindi group,32,10,22,,0,CMG,,,-7.1163239,37.2975458
Morogoro,Mvomero,Doma,Kihondo,,,KIMAKI,38,22,16,,0,CMG,,,-7.1163239,37.2975458
Morogoro,Mvomero,Doma,Kihondo,,,Umoja B,19,12,7,,0,CMG,,,-7.1163239,37.2975458
Morogoro,Mvomero,Doma,Kihondo,,,UMOJA,31,12,19,,0,CMG,,,-7.1163239,37.2975458
Morogoro,Mvomero,Doma,Kihondo,,,Tuinueni Kiuchumi,29,17,12,,0,CMG,,,-7.1163239,37.2975458
Morogoro,Mvomero,Doma,Kihondo,,,Neema ya Bwana,23,12,11,,0,CMG,,,-7.1163239,37.2975458
Morogoro,Mvomero,Doma,Kihondo,,,Mwendokasi,18,8,10,,0,CMG,,,-7.1163239,37.2975458
Morogoro,Mvomero,Doma,Kihondo,,,Wakubwa group,19,14,5,,0,CMG,,,-7.1163239,37.2975458
Morogoro,Mvomero,Doma,Maharaka,,,VGS_ MAHARAKA,10,2,8,,0,CMG,,,-7.1723142,37.3076048
Morogoro,Mvomero,Doma,Maharaka,,,AKU TEMA,16,7,9,,0,CMG,,,-7.172388,37.3075787
Morogoro,Mvomero,Doma,Maharaka,,,Kaziiendelee zaidi_ Maharaka,16,10,6,,0,CMG,,,-7.1723349,37.3076733
Morogoro,Mvomero,Doma,Maharaka,,,Amani _ Maharaka,27,21,6,,0,CMG,,,-7.1723944,37.3077139
Morogoro,Mvomero,Doma,Maharaka,,,Tumaini group _Maharaka,30,25,5,,0,CMG,,,-7.1723777,37.3076646
Morogoro,Mvomero,Doma,Maharaka,,,Zinduka _ Maharaka,28,20,8,,0,CMG,,,-7.1723594,37.3076635
Morogoro,Mvomero,Doma,Maharaka,,,Mkombozi group_Maharaka,20,13,7,,0,CMG,,,-7.1723631,37.3076745
Morogoro,Mvomero,Doma,Maharaka,,,Upendo_ Maharaka,7,3,4,,0,TARURA SPECIAL GROUP,,,-7.1723521,37.3076592
Morogoro,Mvomero,Doma,Maharaka,,,Viwama_ Maharaka,15,5,10,,0,CMG,,,-7.1722914,37.3076452
Morogoro,Mvomero,Doma,Maharaka,,,Nguvu Moja _Maharaka,18,12,6,,0,CMG,,,-7.1723749,37.3076879
Morogoro,Mvomero,Doma,Maharaka,,,TWANZEGE _Maharaka,17,6,11,,0,CMG,,,-7.1723027,37.3076109
Morogoro,Mvomero,Doma,Maharaka,,,Kitunga_ Maharaka,16,14,2,,0,CMG,,,-7.1723383,37.3076128
Morogoro,Mvomero,Doma,Maharaka,,,Chigulumbwe,7,5,2,,0,CMG,,,-6.9566717,37.5376328
Morogoro,Mvomero,Mlali,Mlali,,,Tushikamane _ TASAF,14,13,1,,0,CBRM,,,-6.956717,37.5376195
Morogoro,Mvomero,Mlali,Mlali,,,Mashujaa,14,14,0,,0,CMG,,,-6.956696,37.5376795
Morogoro,Mvomero,Mlali,Mkuyuni,,,Familia,12,0,12,,0,CMG,,,-6.9566652,37.5376384
Morogoro,Mvomero,Mlali,Mkuyuni,,,Mkuyuni group,12,0,12,,0,CMG,,,-6.956616,37.5376376
Morogoro,Mvomero,Mlali,Kinyenze,,,Mwirorese,13,13,0,,0,CMG,,,-6.9567039,37.5376329
Morogoro,Mvomero,Mlali,Kinyenze,,,Tuke Ukae,6,0,6,,0,CMG,,,-6.9566063,37.5375274
Morogoro,Mvomero,Mlali,Peko Misegese,,,TUKALEHAMWE,14,9,5,,0,CMG,,,-6.9567265,37.5377245
Morogoro,Mvomero,Mlali,Peko Misegese,,,Mpilani,12,6,6,,0,CMG,,,-6.9567649,37.5376515
Morogoro,Mvomero,Mlali,Peko Misegese,,,Nguvu kazi,25,11,14,,0,CMG,CBRM,,-6.9569894,37.537689
Morogoro,Mvomero,Doma,Doma,,,Tugeruke _ Doma,14,9,5,,0,CMG,,,-7.0958081,37.2401973
Morogoro,Mvomero,Doma,Doma,,,EDENI_ DOMA,16,7,9,,0,CMG,,,-7.0957944,37.2402171
Morogoro,Mvomero,Doma,Doma,,,Amani na Upendo,15,15,0,,0,CMG,,,-7.0957418,37.2401196
Morogoro,Mvomero,Doma,Doma,,,Jiimarishe_Doma,15,5,10,,0,CMG,,,-7.095826,37.240159
Morogoro,Mvomero,Doma,Doma,,,Akuakuki _Doma,15,8,7,,0,CMG,,,-7.0957619,37.2401201
Morogoro,Mvomero,Doma,Doma,,,Tutafute_Doma,20,8,12,,0,CMG,CBRM,,-7.0957897,37.2401303
Morogoro,Mvomero,Doma,Doma,,,Tuwezeshane_Doma,26,11,15,,0,CBRM,CMG,,-7.0957811,37.2401398
Morogoro,Mvomero,Doma,Doma,,,Faraja group,23,16,7,,0,CMG,CBRM,,-7.0957844,37.2401936
Morogoro,Mvomero,Doma,Doma,,,BodaKido,5,0,5,,0,CBRM,,,-7.0958012,37.2402076
Morogoro,Mvomero,Doma,Doma,,,Kikundi cha Fundisho,15,10,5,,0,CMG,CBRM,,-7.0957078,37.2402005
Morogoro,Mvomero,Doma,Maharaka,,,Kazi iendelee _ Doma,20,8,12,,0,CMG,CBRM,,-7.0958419,37.2402114
Morogoro,Mvomero,Doma,Maharaka,,,Twasote _Doma,6,6,0,,0,CMG,CRB,,-7.0958256,37.2401888
Morogoro,Mvomero,Doma,Maharaka,,,Mshikamano _Doma,17,10,7,,0,CMG,,,-7.0957941,37.2401459
Morogoro,Mvomero,Doma,Maharaka,,,Umoja ni nguvu _ Doma,15,3,12,,0,CMG,,,-7.0957744,37.2402229
Morogoro,Mvomero,Doma,Maharaka,,,Jitihada _ Doma,18,18,0,,0,CMG,,,-7.0957975,37.2402024
Morogoro,Mvomero,Doma,Maharaka,,,Tupendane group _ Doma,24,19,5,,0,CBRM,,,-7.0957639,37.2401714
Morogoro,Mvomero,Doma,Maharaka,,,Jiwezeshe _ Doma,19,15,4,,0,CMG,CBRM,,-7.0957791,37.2401772
Morogoro,Mvomero,Doma,Maharaka,,,Boresha Maisha _ Doma,24,18,6,,0,CMG,CBRM,,-7.0957938,37.2402007
Morogoro,Mvomero,Msongozi,Msongozi,,,Twanzeni,9,1,8,,0,CMG,,,-7.0708016,37.3389534
Morogoro,Mvomero,Msongozi,Msongozi,,,Nufaika,12,11,1,,0,CMG,,,-7.0707702,37.338932
Morogoro,Mvomero,Msongozi,Msongozi,,,Mshikamano,18,16,2,,0,CMG,,,-7.0707494,37.3389362
Morogoro,Mvomero,Msongozi,Msongozi,,,Youth Development Fighters,6,0,6,,0,CMG,,,-7.0707676,37.3390291
Morogoro,Mvomero,Msongozi,Msongozi,,,Umoja group,11,5,6,,0,CMG,,,-7.0706813,37.3390107
Morogoro,Mvomero,Msongozi,Msongozi,,,Twilole ,26,16,10,,0,CMG,,,-7.0707387,37.3389693
Morogoro,Mvomero,Msongozi,Msongozi,,,Juhudi na Maendeleo,10,3,7,,0,CMG,CBRM,,-7.0706787,37.3389655
Morogoro,Mvomero,Msongozi,Msongozi,,,Walonge _ Msongozi,15,15,0,,0,CMG,,,-7.0707708,37.3389339
Morogoro,Mvomero,Msongozi,Msongozi,,,Grata group,16,16,0,,0,CMG,,,-7.0706974,37.3389599
Morogoro,Mvomero,Msongozi,Msongozi,,,Twahamwe ,10,7,3,,0,CMG,,,-7.0707637,37.3390215
Morogoro,Mvomero,Msongozi,Pasua,,,Twavivo,12,12,0,,0,CMG,,,-7.0707957,37.3389779
Morogoro,Mvomero,Msongozi,Pasua,,,Ushirikiano,27,12,15,,0,CMG,,,-7.0707948,37.3389513
Morogoro,Mvomero,Msongozi,Pasua,,,Tushikamane,20,3,17,,0,CMG,,,-7.0707906,37.3389482
Morogoro,Mvomero,Msongozi,Pasua,,,Boda BodaPasua,5,0,5,,0,CMG,,,-7.0707932,37.338936
Morogoro,Mvomero,Msongozi,Pasua,,,Upendo Msongozi,24,14,10,,0,CMG,,,-7.070795,37.3389354
Morogoro,Mvomero,Msongozi,Pasua,,,Namnyaki _ Msongozi,10,10,0,,0,CMG,,,-7.0707682,37.3389248
Morogoro,Mvomero,Mtipule,Mtipule shule,,,Cangamoto B,20,20,0,,0,CMG,,,-7.0025174,37.2738743
Morogoro,Mvomero,Mtipule,Mtipule shule,,,Twikinde,18,6,12,,0,CMG,,,-7.0024623,37.2738882
Morogoro,Mvomero,Mtipule,Mtipule shule,,,Pawa Msongozi,19,19,0,,0,CMG,,,-7.0025171,37.273924
Morogoro,Mvomero,Mtipule,Mtipule shule,,,Boda Boda Mkata,13,0,13,,0,CMG,,,-7.0025271,37.2739283
Morogoro,Mvomero,Mtipule,Mtipule shule,,,Twiyafe,16,3,13,,0,CMG,,,-7.0025553,37.2739113
Morogoro,Mvomero,Mtipule,Mtipule shule,,,Watu na Mazingira,17,10,7,,0,CMG,,,-7.0025359,37.2738901
Morogoro,Mvomero,Mtipule,,,,Tukeni _ Nyanza,7,7,0,,0,CMG,CBRM,,-6.9510785,37.6243528
Morogoro,Mvomero,Mzumbe,Sangasanga,,,Twikinde TASAF,10,5,5,,0,CBRM,CMG,,-6.8921401,37.5596017
Morogoro,Mvomero,Mzumbe,Sangasanga,,,Upendo,30,24,6,,0,CMG,,,-6.892019,37.5596297
Morogoro,Mvomero,Mzumbe,Sangasanga,,,Twijikwamue,28,20,8,,0,CMG,,,-6.8920526,37.5595681
Morogoro,Mvomero,Mzumbe,Sangasanga,,,Youth Vibrated Rocks,5,0,5,,0,CMG,,,-6.8921442,37.5596204
Morogoro,Mvomero,Lubungo,Mafulu,,,Umoja kinamama Upendo,14,14,0,,0,CMG,,,-6.8349225,37.4989954
Morogoro,Mvomero,Lubungo,Mafulu,,,Mwanamke Jikomboe,5,5,0,,0,CMG,,,-6.8349157,37.4989509
Morogoro,Mvomero,Lubungo,Mafulu,,,Eleto_ lubungo,19,12,7,,0,CMG,,,-6.8348358,37.4989079
Morogoro,Mvomero,Lubungo,Mafulu,,,Vijana Wabunifu,9,4,5,,0,CMG,,,-6.8348522,37.4989942
Morogoro,Mvomero,Lubungo,Mafulu,,,Tupendane,20,16,4,,0,CMG,,,-6.8347874,37.4989315
Morogoro,Mvomero,Lubungo,Mafulu,,,Nameloki,20,18,2,,0,CMG,,,-6.8348694,37.4990059
Morogoro,Mvomero,Kinda,Ndole,,,Upendo,9,6,3,,0,USHIRIKA,,,-6.1540182,37.3903294
Morogoro,Mvomero,Kinda,Ndole,,,Amani,18,16,2,,0,CMG,,,-6.1539605,37.3903771
Morogoro,Mvomero,Kinda,Ndole,,,Hapa Kazi,19,19,0,,0,USHIRIKA,,,-6.1539673,37.390376
Morogoro,Mvomero,Kinda,Ndole,,,Amani,23,20,3,,0,CMG,,,-6.1539812,37.3903743
Morogoro,Mvomero,Kinda,Ndole,,,Masatu,20,20,0,,0,CMG,CBO,,-6.1539798,37.3903621
Morogoro,Mvomero,Kinda,Ndole,,,Juhudi,21,19,2,,0,CMG,CBO,,-6.154002,37.3903977
Morogoro,Mvomero,Kinda,Ndole,,,Upendo Ndole,10,10,0,,0,CBO,CMG,,-6.1539885,37.3903181
Morogoro,Mvomero,Kinda,Ndole,,,Vijana Group,16,7,9,,0,CBO,,,-6.1539356,37.3903136
Morogoro,Mvomero,Kinda,Ndole,,,Mabadiliko,23,20,3,,0,CMG,,,-6.1539245,37.390373
Morogoro,Mvomero,Kinda,Ndole,,,Manyata digwamase,19,18,1,,0,CMG,,,-6.1540022,37.3903494
Morogoro,Mvomero,Kinda,Ndole,,,Digwamazi Youth Group,10,2,8,,0,CMG,,,-6.1539824,37.3903599
Morogoro,Mvomero,Kinda,Ndole,,,Hapa Kazi Tu,15,4,11,,0,CBO,,,-6.1539498,37.3903608
Morogoro,Mvomero,Kinda,Ndole,,,Upendo A TASAF,11,11,0,,0,CMG,,,-6.1539871,37.3903891
Morogoro,Mvomero,Kinda,Ndole,,,Mapambano,21,14,7,,0,CMG,,,-6.1539711,37.3903923
Morogoro,Mvomero,Kinda,Ndole,,,Ufugaji wa nyuki wa kisasa na upandaji wa miti,15,8,7,,0,CMG,,,-6.1539633,37.3903812
Morogoro,Mvomero,Kinda,Ndole,,,Kisoma,24,8,16,,0,CMG,CBO,,-6.1533935,37.4353408
Morogoro,Mvomero,Kinda,Ndole,,,Jitegemee,32,32,0,,0,CMG,CBO,,-6.1533428,37.4354332
Morogoro,Mvomero,Kinda,Ndole,,,Tupendane,15,15,0,,0,CMG,,,-6.1533606,37.4354853
Morogoro,Mvomero,Kinda,Makati,,,Tushirikiane,11,11,0,,0,CMG,,,-6.1533491,37.4354529
Morogoro,Mvomero,Kinda,Makati,,,Upendo,30,22,8,,0,CMG,,,-6.1533501,37.4354304
Morogoro,Mvomero,Kinda,Makati,,,Tushirikiane,30,25,5,,0,CMG,,,-6.1532943,37.4353939
Morogoro,Mvomero,Kinda,Makati,,,Wamama Chogo,23,23,0,,0,CMG,,,-6.1533646,37.4354401
Morogoro,Mvomero,Maskati,Dibago,,,Chikazanei,12,0,12,,0,CBO,,,-6.0761831,37.434703
Morogoro,Mvomero,Maskati,Dibago,,,Msekwa A,12,12,0,,0,CBO,,,-6.0762278,37.4346569
Morogoro,Mvomero,Maskati,Dibago,,,Juhudi Magunga,10,4,6,,0,CBO,,,-6.0762307,37.4346668
Morogoro,Mvomero,Maskati,Dibago,,,Juhudi Magunga,10,4,6,,0,CBO,,,-6.0762424,37.4346648
Morogoro,Mvomero,Maskati,Dibago,,,Tugende,17,5,12,,0,CMG,,,-6.0669841,37.4645821
Morogoro,Mvomero,Maskati,Dibago,,,Maduma,29,15,14,,0,CMG,,,-6.06697,37.4645851
Morogoro,Mvomero,Maskati,Dibago,,,Tupendane,33,9,24,,0,CMG,,,-6.0669594,37.4645824
Morogoro,Mvomero,Maskati,Dibago,,,Imani,11,8,3,,0,USHIRIKA,,,-6.0669647,37.4645839
Morogoro,Mvomero,Maskati,Magunga,,,Msekwa B,7,7,0,,0,CMG,,,-6.0669684,37.4645861
Morogoro,Mvomero,Maskati,Magunga,,,Visegese Group,8,8,0,,0,CMG,,,-6.0669706,37.4645873
Morogoro,Mvomero,Maskati,Magunga,,,Nguvu moja,15,14,1,,0,CMG,,,-6.0669774,37.4645638
Morogoro,Mvomero,Maskati,Magunga,,,Hapa Kazi Tu,24,13,11,,0,CMG,,,-6.0669449,37.4646742
Morogoro,Mvomero,Dakawa,Wami Dakawa,,,Tunza Mazingira,14,5,9,,0,CBO,,,-6.4380023,37.5324322
Morogoro,Mvomero,Dakawa,Wami Dakawa,,,Vijana Mshikamano B,40,6,34,,0,CBO,CMG,,-6.4380349,37.5322738
Morogoro,Mvomero,Dakawa,Wami Dakawa,,,Chikimanya B,19,19,0,,0,CMG,CBO,,-6.4380542,37.5322955
Morogoro,Mvomero,Dakawa,Wami Dakawa,,,Maridhiano,5,5,0,,0,CBO,,,-6.4380549,37.532351
Morogoro,Mvomero,Dakawa,Wami Dakawa,,,Ushindi kwa Maendeleo ya Jamii,10,5,5,,0,CBO,,,-6.4379816,37.5323667
Morogoro,Mvomero,Dakawa,Wami Dakawa,,,Kidebwe,5,5,0,,0,CBO,,,-6.4380339,37.5323376
Morogoro,Mvomero,Dakawa,Wami Dakawa,,,Tausi,21,21,0,,0,CBO,CMG,,-6.4380019,37.5323616
Morogoro,Mvomero,Dakawa,Wami Dakawa,,,Juhudishe,5,5,0,,0,CMG,,,-6.4379655,37.5323791
Morogoro,Mvomero,Dakawa,Wami Dakawa,,,Mshikamano,30,30,0,,0,CBO,,,-6.4379734,37.5323871
Morogoro,Mvomero,Dakawa,Wami Dakawa,,,Hatushindwi,23,22,1,,0,CBO,,,-6.4380037,37.5323066
Morogoro,Mvomero,Dakawa,Wami Dakawa,,,Mwangaza,5,5,0,,0,CBO,CMG,,-6.4380096,37.5323105
Morogoro,Mvomero,Dakawa,Wami Dakawa,,,Chipo Sports Club,23,7,16,,0,CBO,,,-6.4380655,37.5324402
Morogoro,Mvomero,Dakawa,Wami Dakawa,,,Dehere,13,13,0,,0,CBO,,,-6.4380458,37.5324169
Morogoro,Mvomero,Dakawa,Mirama,,,Nobama,5,0,5,,0,CBO,CMG,,-6.3732906,37.4437804
Morogoro,Mvomero,Dakawa,Mirama,,,Juhudi,5,1,4,,0,CBO,CMG,,-6.3732811,37.4438011
Morogoro,Mvomero,Mvomero,Mgudeni,,,Nobama,5,0,5,,0,CBO,,,-6.373269,37.4439173
Morogoro,Mvomero,Mvomero,Mgudeni,,,Matawi Imara,7,7,0,,0,CMG,,,-6.3206003,37.4366244
Morogoro,Mvomero,Mvomero,Mgudeni,,,Umapiba,6,2,4,,0,CBO,,,-6.3205909,37.4366711
Morogoro,Mvomero,Mvomero,Mgudeni,,,Iza,9,9,0,,0,CBO,,,-6.3205869,37.4366656
Morogoro,Mvomero,Mvomero,Mgudeni,,,Uaminifu,6,6,0,,0,CBO,CMG,,-6.3205862,37.4366589
Morogoro,Mvomero,Mvomero,Mgudeni,,,Mbugani,5,5,0,,0,CBO,,,-6.3205867,37.4366594
Morogoro,Mvomero,Mvomero,Mgudeni,,,Chikiende,10,10,0,,0,CBO,,,-6.3205796,37.436666
Morogoro,Mvomero,Mvomero,Mgudeni,,,Mwanzo Mgumu,8,8,0,,0,CBO,CMG,,-6.32058,37.4366693
Morogoro,Mvomero,Mvomero,Mgudeni,,,Naisulata,11,11,0,,0,CMG,,,-6.3205904,37.4367209
Morogoro,Mvomero,Mvomero,Mgudeni,,,Mapambano,10,3,7,,0,CBO,,,-6.3205944,37.4366888
Morogoro,Mvomero,Hembeti,Dihombo,,,Uhai Vijana,16,7,9,,0,CBO,CMG,,-6.2686434,37.5337499
Morogoro,Mvomero,Hembeti,Dihombo,,,Kalatuke,10,0,10,,0,CBO,,,-6.2685625,37.5338848
Morogoro,Mvomero,Hembeti,Dihombo,,,Maendeleo,9,5,4,,0,CBO,,,-6.268663,37.5338335
Morogoro,Mvomero,Hembeti,Dihombo,,,Umoja,7,7,0,,0,CMG,CBO,,-6.2686376,37.5338214
Morogoro,Mvomero,Hembeti,Dihombo,,,Upendo,10,10,0,,0,CMG,CBO,,-6.2686254,37.5338179
Morogoro,Mvomero,Hembeti,Dihombo,,,Hembeti Kwa Imani Tunaweza,20,20,0,,0,CMG,CBO,,-6.2686194,37.5339196
Morogoro,Mvomero,Hembeti,Dihombo,,,Manufaa,11,11,0,,0,CBO,,,-6.2686479,37.5338498
Morogoro,Mvomero,Hembeti,Dihombo,,,Jitegemee,5,5,0,,0,CBO,,,-6.2683819,37.5337197
Morogoro,Mvomero,Hembeti,Dihombo,,,Juhudi,9,9,0,,0,CBO,,,-6.2686263,37.5337854
Morogoro,Mvomero,Hembeti,Dihombo,,,Songa Mbele,7,7,0,,0,CBO,,,-6.2686582,37.5339507
Morogoro,Mvomero,Mkindo,Mndela,,,Boresha Maisha,7,0,7,,0,CMG,CBO,,-6.241725,37.5535062
Morogoro,Mvomero,Mkindo,Mndela,,,Upendo,8,8,0,,0,CMG,,,-6.2417094,37.5534737
Morogoro,Mvomero,Mkindo,Mndela,,,Upendo,10,10,0,,0,CMG,,,-6.2417164,37.5534692
Morogoro,Mvomero,Bunduki,Vinile,,,Mnyonge _ Lusungi,23,14,9,,0,CMG,CBRM,,-7.0424446,37.5725572
Morogoro,Mvomero,Bunduki,Vinile,,,Twilose,12,12,0,,0,CMG,,,-7.0424224,37.5726052
Morogoro,Mvomero,Bunduki,Vinile,,,Twikinde,30,18,12,,0,CMG,,,-7.0425212,37.5725922
Morogoro,Mvomero,Bunduki,Vinile,,,Twombolimwe,25,19,6,,0,CMG,,,-7.0425031,37.5725639
Morogoro,Mvomero,Bunduki,Vinile,,,Tuamke group,22,5,17,,0,CBRM,,,-7.0424766,37.5725963
Morogoro,Mvomero,Bunduki,Vinile,,,Wanawake Tukomboane,23,23,0,,0,CMG,,,-7.042442,37.5726489
Morogoro,Mvomero,Bunduki,Vinile,,,Jumuiya Chapakazi Mugeta,9,9,0,,0,CMG,,,-7.0425629,37.5725087
Morogoro,Mvomero,Bunduki,Bunduki,,,TUGEZE,27,27,0,,0,CMG,,,-7.0317609,37.6143498
Morogoro,Mvomero,Bunduki,Bunduki,,,Tujiongeze _ TASAF,15,15,0,,0,CBRM,CMG,,-7.0317831,37.6143517
Morogoro,Mvomero,Bunduki,Bunduki,,,Tusogere,14,14,0,,0,CMG,CBRM,,-7.0317415,37.6143571
Morogoro,Mvomero,Bunduki,Bunduki,,,Upendo _ Kijana Nahodha,16,10,6,,0,CMG,,,-7.0317851,37.6143654
Morogoro,Mvomero,Bunduki,Bunduki,,,Twima,20,20,0,,0,CMG,CBRM,,-7.0317314,37.6143119
Morogoro,Mvomero,Bunduki,Bunduki,,,Tulawe TASAF,15,14,1,,0,CBRM,CMG,,-7.0317626,37.6142807
Morogoro,Mvomero,Bunduki,Bunduki,,,Twifunze,30,30,0,,0,CBRM,CMG,,-7.0317675,37.6143518
Morogoro,Mvomero,Bunduki,Bunduki,,,Tuzenge TASAF,9,2,7,,0,CMG,,,-7.0317251,37.6143404
Morogoro,Mvomero,Bunduki,Bunduki,,,Twikinde,11,9,2,,0,CBRM,,,-7.0317713,37.6143524
Morogoro,Mvomero,Bunduki,Bunduki,,,Tumaini _ TASAF,16,14,2,,0,CBRM,,,-7.0317643,37.6143471
Morogoro,Mvomero,Bunduki,Bunduki,,,Tujaribu Tuleli,12,1,11,,0,CBRM,,,-7.0317549,37.6143386
Morogoro,Mvomero,Bunduki,Bunduki,,,Tugeze,12,5,7,,0,CMG,,,-7.0317539,37.6143487
Morogoro,Mvomero,Bunduki,Bunduki,,,Tugeze TASAF Bunduki,14,13,1,,0,CBRM,CMG,,-7.0317881,37.614364
Morogoro,Mvomero,Bunduki,Bunduki,,,Tuwalole _ Bunduki TASAF,10,10,0,,0,CBRM,CMG,,-7.0317942,37.6143692
Morogoro,Mvomero,Bunduki,Bunduki,,,Twiyave,18,18,0,,0,CMG,,,-7.0320048,37.6139522
Morogoro,Mvomero,Tchenzema,Tchenzema,,,Tughetse,18,18,0,,0,CMG,,,-7.055611,37.5764432
Morogoro,Mvomero,Tchenzema,Tchenzema,,,Nguvu Kazi ,17,10,7,,0,CBRM,,,-7.055665,37.576496
Morogoro,Mvomero,Tchenzema,Tchenzema,,,Wekeza,24,16,8,,0,CMG,,,-7.0556568,37.5763905
Morogoro,Mvomero,Tchenzema,Tchenzema,,,Upendo,13,9,4,,0,CMG,,,-7.0556344,37.5763915
Morogoro,Mvomero,Tchenzema,Tchenzema,,,Twiyonzole,18,16,2,,0,CMG,,,-7.0556555,37.5764166
Morogoro,Mvomero,Tchenzema,Tchenzema,,,Tubame,29,29,0,,0,CMG,,,-7.0556313,37.5764037
Morogoro,Mvomero,Tchenzema,Tchenzema,,,Ng'enge,9,9,0,,0,CMG,,,-7.055632,37.576415
Morogoro,Mvomero,Tchenzema,Tchenzema,,,Twighoghe,19,3,16,,0,CBRM,,,-7.0556575,37.5763826
Morogoro,Mvomero,Tchenzema,Tchenzema,,,MotoMoto,44,19,25,,0,CBRM,,,-7.1032322,37.5866952
Morogoro,Mvomero,Tchenzema,Tchenzema,,,Jumuiya ya Upendo Kibagala,23,23,0,,0,CMG,,,-7.103158,37.5867087
Morogoro,Mvomero,Mhonda,Mafuta,,,TASAF MAFUTA,48,18,30,,0,USHIRIKA,,,-6.0828564,37.5641319
Morogoro,Mvomero,Kibati,Kibogoji,,,Umoja wa Vijana,10,1,9,,0,CMG,,,-5.8852363,37.480455
Morogoro,Mvomero,Kibati,Kibogoji,,,Tumaini,19,7,12,,0,CMG,,,-5.8852278,37.4805016
Morogoro,Mvomero,Kibati,Kibogoji,,,Nguvu kazi,10,0,10,,0,CMG,,,-5.8239722,37.5012511
Morogoro,Mvomero,Kibati,Pandambili,,,Nguvukazi,11,7,4,,0,CBO,,,-5.8239602,37.5012893
Morogoro,Mvomero,Kibati,Diburuma,,,Mshikamano Diburuma,11,2,9,,0,CBO,CMG,,-5.8344969,37.4426327
Morogoro,Mvomero,Kibati,Diburuma,,,UWADIBU,13,5,8,,0,CBO,,,-5.8344881,37.442649
Morogoro,Mvomero,Kibati,Diburuma,,,Mapambano Diburuma,13,3,10,,0,CBO,,,-5.8344849,37.4425603
Morogoro,Mvomero,Kibati,Diburuma,,,Twende Pamoja,23,2,21,,0,CBO,,,-5.8344868,37.4425968
Morogoro,Mvomero,Kibati,Diburuma,,,Jitazame,13,2,11,,0,CBO,CMG,,-5.8344653,37.4426
Morogoro,Mvomero,Kibati,Diburuma,,,Juhudi,15,5,10,,0,CMG,,,-5.8344601,37.4426097
Morogoro,Mvomero,Njiapanda,Mkata,,,Agape group,15,10,5,,0,CMG,CBRM,,-7.0025517,37.2739056
Morogoro,Mvomero,Njiapanda,Mkata,,,Changamoto,18,14,4,,0,CMG,,,-7.0025195,37.2738585
Morogoro,Mvomero,Njiapanda,Mkata,,,Amkeni,15,7,8,,0,CMG,,,-7.0025293,37.2738616
Morogoro,Mvomero,Dakawa,Wami Sokoine,,,Newang'a,100,96,4,,0,CBO,,,-6.5388418,37.5685496
Morogoro,Mvomero,Dakawa,Wami Sokoine,,,Enywata,5,5,0,,0,CBO,,,-6.5387904,37.5685606
Morogoro,Mvomero,Dakawa,Wami Sokoine,,,Naretisho,6,6,0,,0,CMG,CBO,,-6.5387789,37.5685644
Morogoro,Mvomero,Dakawa,Wami Sokoine,,,Naitopokisho,10,10,0,,0,CBO,,,-6.5387763,37.568572
Morogoro,Mvomero,Dakawa,Wami Sokoine,,,Mapatano,13,13,0,,0,CMG,,,-6.53882,37.5686326
Morogoro,Mvomero,Dakawa,Wami Sokoine,,,Eunishi,27,27,0,,0,CBO,CMG,,-6.5388103,37.5686227
Morogoro,Mvomero,Dakawa,Wami Sokoine,,,Nodwati,5,5,0,,0,CBO,CMG,,-6.5387987,37.5686296
Morogoro,Mvomero,Dakawa,Wami Sokoine,,,Wendo Group,28,28,0,,0,CBO,,,-6.5387821,37.5686046
Morogoro,Mvomero,Dakawa,Wami Sokoine,,,Kijani Group,25,20,5,,0,CMG,CBO,,-6.5387679,37.5685752
Morogoro,Mvomero,Dakawa,Wami Sokoine,,,Tunaweza,19,17,2,,0,CMG,,,-6.5387732,37.568619
Morogoro,Mvomero,Dakawa,Wami Sokoine,,,Ilaramata,28,22,6,,0,CBO,CMG,,-6.5388072,37.5686023
Morogoro,Mvomero,Dakawa,Wami Sokoine,,,Naitopokisho,10,10,0,,0,CBO,CMG,,-6.538863,37.5685959
Morogoro,Mvomero,Dakawa,Wami Sokoine,,,Enyoa,12,12,0,,0,CBO,CMG,,-6.5388309,37.5685827
Morogoro,Mvomero,Mtibwa,Madizini,,,Tupendane,28,27,1,,0,CMG,,,-6.1341408,37.6330908
Morogoro,Mvomero,Mtibwa,Madizini,,,Mapambano,30,29,1,,0,CMG,,,-6.1341699,37.6329889
Morogoro,Mvomero,Mhonda,Kichangani,,,Irunda - Kichangani,7,7,0,,0,CBO,,,-6.1452263,37.5951461
Morogoro,Mvomero,Mhonda,Kichangani,,,Superwoman - Kichangani,6,6,0,,0,CBO,,,-6.1452263,37.5951461
Morogoro,Mvomero,Mhonda,Kichangani,,,Nyemo - Kichangani,7,7,0,,0,CBO,,,-6.1452263,37.5951461
Morogoro,Mvomero,Mhonda,Kichangani,,,Muungano - Kichangani,7,7,0,,0,CMG,,,-6.1452263,37.5951461
Morogoro,Mvomero,Mhonda,Kichangani,,,Upendo Group - Kichangani,11,11,0,,0,CBO,,,-6.1452263,37.5951461
Morogoro,Mvomero,Mhonda,Kichangani,,,Neema Group - Kichangani,5,5,0,,0,CBO,,,-6.1452263,37.5951461
Morogoro,Mvomero,Mhonda,Kichangani,,,Upendo B - Kichangani,9,9,0,,0,CBO,,,-6.1452263,37.5951461
Morogoro,Mvomero,Mhonda,Kichangani,,,Wanawake wa soko la ndizi,7,7,0,,0,CMG,,,-6.1452263,37.5951461
Morogoro,Mvomero,Mhonda,Kichangani,,,Akinamama Mapalamba,11,11,0,,0,CMG,,,-6.1452263,37.5951461
Morogoro,Mvomero,Mhonda,Kichangani,,,Kihano,20,20,0,,0,CMG,,,-6.1452263,37.5951461
Morogoro,Mvomero,Mhonda,Kichangani,,,Ushirikiano - Tasaf,13,12,1,,0,TASAF,,,-6.1452263,37.5951461
Morogoro,Mvomero,Mhonda,Kichangani,,,Upendo Tasaf,10,10,0,,0,TASAF,,,-6.1452263,37.5951461
Morogoro,Mvomero,Mhonda,Kichangani,,,Viwaki,13,10,3,,0,CMG,,,-6.1452263,37.5951461
Morogoro,Mvomero,Mhonda,Mhonda,,,Furaha - Mhonda,17,17,0,,0,CMG,,,-6.1450859,37.5950665
Morogoro,Mvomero,Mhonda,Mhonda,,,Umoja - Mhonda,11,11,0,,0,CBO,,,-6.1450859,37.5950665
Morogoro,Mvomero,Mhonda,Mhonda,,,Ushirikiano mwema - Mhonda,14,14,0,,0,CMG,,,-6.1450859,37.5950665
Morogoro,Mvomero,Mhonda,Mhonda,,,Weupe Group - Mhonda,10,10,0,,0,CMG,,,-6.1450859,37.5950665
Dodoma,Kongwa,Iduo,Suguta,,,Mshikamano,30,13,17,,0,CBRM,,,-6.2969997,36.6828422
Dodoma,Kongwa,Iduo,Suguta,,,Tuungane,7,7,0,,0,CMG,,,-6.2969997,36.6828422
Dodoma,Kongwa,Iduo,Suguta,,,Kuinuana,5,0,5,,0,CBO,,,-6.2969997,36.6828422
Dodoma,Kongwa,Iduo,Suguta,,,Tupendane,5,5,0,,0,TASAF,,,-6.2969997,36.6828422
Dodoma,Kongwa,Iduo,Suguta,,,Super woman,42,23,19,,0,CBO,,,-6.2969997,36.6828422
Dodoma,Kongwa,Iduo,Suguta,,,Tuchape kazi,12,11,1,,0,CBO,,,-6.2969997,36.6828422
Dodoma,Kongwa,Iduo,Iduo,,,Nguvu Kazi,29,13,16,,0,CBRM,,,-6.2671237,36.6484032
Dodoma,Kongwa,Iduo,Iduo,,,Uzalendo,5,5,0,,0,CBO,,,-6.2671237,36.6484032
Dodoma,Kongwa,Iduo,Iduo,,,TASAF,13,8,5,,0,TASAF,,,-6.2671237,36.6484032
Dodoma,Kongwa,Iduo,Iduo,,,Nyota Njema,5,5,0,,0,CBO,CMG,,-6.2671237,36.6484032
Dodoma,Kongwa,Iduo,Iduo,,,Muungano,28,13,15,,0,CMG,,,-6.2671237,36.6484032
Dodoma,Kongwa,Iduo,Masinyeti,,,Chihange Masinyeti,27,14,13,,0,CBRM,,,-6.2488372,36.655793
Dodoma,Kongwa,Iduo,Masinyeti,,,Tumaini,27,23,4,,0,CBO,,,-6.2488372,36.655793
Dodoma,Kongwa,Iduo,Masinyeti,,,Mshikamano,9,9,0,,0,CMG,,,-6.2488372,36.655793
Dodoma,Kongwa,Iduo,Masinyeti,,,Neema,6,2,4,,0,TASAF,,,-6.2488372,36.655793
Dodoma,Kongwa,Iduo,Masinyeti,,,Jipemoyo,13,13,0,,0,CMG,,,-6.2488372,36.655793
Dodoma,Kongwa,Iduo,Masinyeti,,,Safina Chang`ombe,28,17,11,,0,CBRM,,,-6.2488372,36.655793
Dodoma,Kongwa,Iduo,Mjimwema,,,Nguvukazi,26,13,13,,0,CMG,,,-6.2672373,36.6483819
Dodoma,Kongwa,Kibaigwa,Ndurugumi,,,KTM - Ndurugumi,15,4,11,,0,CBRM,,,-6.1202197,36.6359662
Dodoma,Kongwa,Kibaigwa,Ndurugumi,,,Msamaria Mwema,7,7,0,,0,CBO,,,-6.1202197,36.6359662
Dodoma,Kongwa,Kibaigwa,Ndurugumi,,,Mshikamano - Ndurugumi,9,9,0,,0,CMG,,,-6.1202197,36.6359662
Dodoma,Kongwa,Kibaigwa,Ndurugumi,,,Utulivu - Ndurugumi,7,6,1,,0,CMG,CBO,,-6.1202197,36.6359662
Dodoma,Kongwa,Kibaigwa,Ndurugumi,,,Hope Group - Ndurugumi,25,23,2,,0,CBO,,,-6.1202197,36.6359662
Dodoma,Kongwa,Mtanana,Mtanana B,,,Juhudi Mtanana B,24,19,5,,0,CMG,,,-6.0811941,36.5878502
Dodoma,Kongwa,Mtanana,Mtanana B,,,Upendo Mtanana B,30,21,9,,0,TASAF,,,-6.0811941,36.5878502
Dodoma,Kongwa,Mtanana,Mtanana B,,,Mshikamano Mtanana B,8,2,6,,0,TASAF,,,-6.0811941,36.5878502
Dodoma,Kongwa,Mtanana,Mtanana A,,,Mshikamano Mtanana A,11,11,0,,0,CMG,,,-6.0434936,36.5738629
Dodoma,Kongwa,Mtanana,Mtanana A,,,Juhudi Mtanana A,10,10,0,,0,CMG,,,-6.0434936,36.5738629
Dodoma,Kongwa,Mtanana,Mtanana A,,,Umoja Mtanana A,30,20,10,,0,CMG,,,-6.0434936,36.5738629
Dodoma,Kongwa,Mtanana,Mtanana A,,,Neema Mtanana A,10,10,0,,0,TASAF,,,-6.0434936,36.5738629
Dodoma,Kongwa,Mtanana,Soiti,,,Utulivu - Soiti,14,14,0,,0,TASAF,,,-5.9974918,36.5869387
Dodoma,Kongwa,Mtanana,Soiti,,,Jitegemee - Soiti,13,10,3,,0,CBO,,,-5.9974918,36.5869387
Dodoma,Kongwa,Mtanana,Soiti,,,Muungano Soiti,18,18,0,,0,CMG,,,-5.9974918,36.5869387
Dodoma,Kongwa,Makawa,Silale,,,Misheni - Silale,8,8,0,,0,CMG,,,-5.822631,36.5508518
Dodoma,Kongwa,Makawa,Silale,,,Mapinduzi,7,7,0,,0,CMG,,,-5.822631,36.5508518
Dodoma,Kongwa,Makawa,Silale,,,Jitume,19,12,7,,0,CMG,,,-5.822631,36.5508518
Dodoma,Kongwa,Makawa,Silale,,,Bodaboda - Silale,10,10,0,,0,CBO,CMG,,-5.822631,36.5508518
Dodoma,Kongwa,Makawa,Silale,,,Wekeza,15,7,8,,0,TASAF,,,-5.822631,36.5508518
Dodoma,Kongwa,Makawa,Silale,,,Kukamasi,12,12,0,,0,CBO,,,-5.822631,36.5508518
Dodoma,Kongwa,Makawa,Silale,,,Tumaini,10,5,5,,0,CMG,,,-5.822631,36.5508518
Dodoma,Kongwa,Makawa,Muungano,,,Ushinadi - Kongwa,6,2,4,,0,CMG,,,-5.7535147,36.5416731
Dodoma,Kongwa,Makawa,Muungano,,,Juhudi,8,1,7,,0,CMG,,,-5.7535147,36.5416731
Dodoma,Kongwa,Makawa,Muungano,,,Wiyangasule,15,13,2,,0,CMG,,,-5.7535147,36.5416731
Dodoma,Kongwa,Makawa,Muungano,,,Mkombozi,25,22,3,,0,CMG,,,-5.7535147,36.5416731
Dodoma,Kongwa,Makawa,Muungano,,,Mtazamo Chanya,12,12,0,,0,CBO,,,-5.7535147,36.5416731
Dodoma,Kongwa,Makawa,Makawa,,,Ebeneza,19,14,5,,0,CMG,,,-5.7535156,36.5418192
Dodoma,Kongwa,Makawa,Makawa,,,Sunflower - Makawa,11,6,5,,0,CBO,,,-5.7535156,36.5418192
Dodoma,Kongwa,Makawa,Makawa,,,Wasakatonge,5,5,0,,0,CMG,,,-5.7535156,36.5418192
Dodoma,Kongwa,Makawa,Makawa,,,Hekima Silk,14,7,7,,0,CBO,,,-5.7535156,36.5418192
Dodoma,Kongwa,Makawa,Mageseni,,,Amani TASAF,15,10,5,,0,TASAF,,,-5.7224828,36.4811241
Dodoma,Kongwa,Makawa,Mageseni,,,Vijana Mageseni,15,6,9,,0,CBO,,,-5.7224828,36.4811241
Dodoma,Kongwa,Makawa,Mageseni,,,Upendo Group Mageseni,15,13,2,,0,CMG,,,-5.7224828,36.4811241
Dodoma,Kongwa,Zoisa,Zoisa,,,Utetezi - Zoisa,15,13,2,,0,CMG,,,-5.6889255,36.4034027
Dodoma,Kongwa,Makawa,Zoisa,,,Vijana - Zoisa,15,14,1,,0,CMG,,,-5.6889255,36.4034027
Dodoma,Kongwa,Makawa,Zoisa,,,Ukombozi - Zoisa,10,9,1,,0,CMG,,,-5.6889255,36.4034027
Dodoma,Kongwa,Makawa,Zoisa,,,Upendo Group - Zoisa,12,11,1,,0,TASAF,,,-5.6889255,36.4034027
Dodoma,Kongwa,Kongwa,Morisheni,,,Jitegemee,10,10,0,,0,TASAF,,,-6.1993369,36.4192121
Dodoma,Kongwa,Kongwa,Morisheni,,,Muungano,9,3,6,,0,TASAF,,,-6.1993369,36.4192121
Dodoma,Kongwa,Kongwa,Morisheni,,,TASAF,60,40,20,,0,TASAF,,,-6.1993369,36.4192121
Dodoma,Kongwa,Kongwa,Majengo,,,Bodaboda Wachafu,20,10,10,,0,CBO,,,-6.1993369,36.4192121
Dodoma,Kongwa,Kongwa,Kongwa,,,Tumaini Kongwa,20,3,17,,0,CMG,CBO,,-6.1993369,36.4192121
Dodoma,Kongwa,Kongwa,Kongwa,,,New Life Group,5,5,0,,0,CBO,,,-6.1993369,36.4192121
Dodoma,Kongwa,Ugogoni,Ugogoni,,,Jikomboe Group,5,5,0,,0,CMG,,,-6.1967614,36.42264
Dodoma,Kongwa,Ugogoni,Mautya,,,Amani Mautya B,6,6,0,,0,CBO,,,-6.1760237,36.4749705
Dodoma,Kongwa,Ugogoni,Mautya,,,Wendo Mautya B,5,1,4,,0,CBO,,,-6.1760237,36.4749705
Dodoma,Kongwa,Ugogoni,Mautya,,,Ujamaa Mautya B,30,28,2,,0,CBO,,,-6.1760237,36.4749705
Dodoma,Kongwa,Sagara,Msingisa,,,Tupendane,6,6,0,,0,CMG,,,-6.1816795,36.5294892
Dodoma,Kongwa,Sagara,Msingisa,,,Mshikamano,6,2,4,,0,CBO,,,-6.1816795,36.5294892
Dodoma,Kongwa,Sagara,Msingisa,,,Vijana Makini Msingisa,6,6,0,,0,CBO,,,-6.1816795,36.5294892
Dodoma,Kongwa,Sagara,Msingisa,,,Furaha,17,13,4,,0,TASAF,,,-6.1816795,36.5294892
Dodoma,Kongwa,Sagara,Msingisa,,,Kiende,13,13,0,,0,CBO,,,-6.1816795,36.5294892
Dodoma,Kongwa,Sagara,Laikala B,,,Uvumilivu,28,15,13,,0,TASAF,,,-6.1870392,36.6103064
Dodoma,Kongwa,Sagara,Laikala B,,,Vijana Laikala B,7,6,1,,0,CBO,,,-6.1870392,36.6103064
Dodoma,Kongwa,Sagara,Laikala B,,,Muungano Laikala,25,23,2,,0,CBO,,,-6.1870392,36.6103064
Dodoma,Kongwa,Kibaigwa,Kibaigwa,,,Mapinduzi Kibaigwa,8,2,6,,0,CMG,,,-6.0867947,36.6486424
Dodoma,Kongwa,Kibaigwa,Kibaigwa,,,Faraja Group,11,11,0,,0,CBO,,,-6.0867947,36.6486424
Dodoma,Kongwa,Kibaigwa,Kibaigwa,,,Jiendeleze Group,10,10,0,,0,CBO,,,-6.0867947,36.6486424
Dodoma,Kongwa,Kibaigwa,Kibaigwa,,,Kazamoyo,30,20,10,,0,CBO,,,-6.086813,36.6486179
Dodoma,Kongwa,Kibaigwa,Kibaigwa,,,Kazikazi Kibaigwa,10,10,0,,0,CBO,,,-6.086813,36.6486179
Dodoma,Kongwa,Kibaigwa,Kibaigwa,,,Nguvukazi,14,14,0,,0,CBRM,,,-6.086813,36.6486179
Dodoma,Kongwa,Kibaigwa,Kibaigwa,,,Kazi iendelee,13,10,3,,0,CMG,,,-6.086813,36.6486179
Dodoma,Kongwa,Kibaigwa,Kibaigwa,,,Umoja ni Nguvu,18,18,0,,0,CBO,,,-6.086813,36.6486179
Dodoma,Kongwa,Kibaigwa,Kibaigwa,,,Bodaboda Hembahemba,13,0,13,,0,CBO,,,-6.086813,36.6486179
Dodoma,Kongwa,Mlali,Mlali Bondeni,,,Tuinuke Group,11,11,0,,0,TASAF,,,-6.3017719,36.7732122
Dodoma,Kongwa,Mlali,Mlali Bondeni,,,Amkeni,10,0,10,,0,CMG,,,-6.3017719,36.7732122
Dodoma,Kongwa,Mlali,Mlali Bondeni,,,Pamoja Tunaweza,8,8,0,,0,CBO,,,-6.3017719,36.7732122
Dodoma,Kongwa,Mlali,Mlali Bondeni,,,Umoja,7,7,0,,0,CBO,,,-6.3017719,36.7732122
Dodoma,Kongwa,Chiwe,Chiwe,,,Ushindi Group Chiwe,19,12,7,,0,CMG,,,-6.2217873,36.7848774
Dodoma,Kongwa,Chamkoroma,Manghw'etha,,,Jitume A,10,10,0,,0,CMG,,,-6.3671826,36.6606558
Dodoma,Kongwa,Chamkoroma,Manghw'etha,,,Muungano,15,7,8,,0,CMG,,,-6.3671826,36.6606558
Dodoma,Kongwa,Chamkoroma,Manghw'etha,,,Juitume,12,12,0,,0,CBO,,,-6.3671826,36.6606558
Dodoma,Kongwa,Chamkoroma,Mseta Bondeni,,,Uhuru Mseta Bondeni,10,5,5,,0,TASAF,,,-6.3838131,36.7043105
Dodoma,Kongwa,Chamkoroma,Mseta Bondeni,,,Uhuru,6,2,4,,0,CMG,,,-6.3838131,36.7043105
Dodoma,Kongwa,Chamkoroma,Mseta Bondeni,,,Mshikamano,8,1,7,,0,CMG,,,-6.3838131,36.7043105
Dodoma,Kongwa,Chamkoroma,Mseta A,,,Muungano,15,13,2,,0,CBO,,,-6.3832012,36.6797341
Dodoma,Kongwa,Chamkoroma,Mseta A,,,Juhudi,25,22,3,,0,TASAF,,,-6.3832012,36.6797341
Dodoma,Kongwa,Chamkoroma,Mseta A,,,Bodaboda mseta,12,12,0,,0,CBO,,,-6.3832012,36.6797341
Dodoma,Kongwa,Chamkoroma,Mseta A,,,Umoja Group,19,14,5,,0,CBO,,,-6.3832012,36.6797341
Dodoma,Kongwa,Lenjulu,Lenjulu B,,,Tumaini,11,6,5,,0,CMG,,,-6.0492602,36.7874438
Dodoma,Kongwa,Lenjulu,Lenjulu B,,,Ukombozi,5,5,0,,0,CMG,,,-6.0492602,36.7874438
Dodoma,Kongwa,Lenjulu,Lenjulu B,,,Nyemo,5,0,5,,0,CMG,,,-6.0492602,36.7874438
Dodoma,Kongwa,Pandambili,Pandambili A,,,Mshikamo,5,5,0,,0,CBRM,,,-6.0493207,36.7873388
Dodoma,Kongwa,Pandambili,Pandambili A,,,Mungu Mwema,5,0,5,,0,CBO,,,-6.0493207,36.7873388
Dodoma,Kongwa,Lenjulu,Kiteto,,,Nguvu moja,15,2,13,,0,CBO,,,-5.9850874,36.9110448
Dodoma,Kongwa,Lenjulu,Kiteto,,,Furaha,11,6,5,,0,CMG,,,-5.9850874,36.9110448
Dodoma,Kongwa,Lenjulu,Kiteto,,,Mazingira,15,15,0,,0,CMG,,,-5.9850874,36.9110448
Dodoma,Kongwa,Lenjulu,Kiteto,,,Kijiamini,10,10,0,,0,CBO,,,-5.9850874,36.9110448
Pwani,Rufiji,Utete,kiwili,65002,1.12,Maendeleo Vijana Utete,5,1,4,,0,TASAF,,,-7.9927362,38.757953
Pwani,Rufiji,Utete,kiwili,65002,1.12,Tujumuke group,7,7,0,,0,CMG,,,-7.9920445,38.7566903
Pwani,Rufiji,Utete,kiwili,65002,1.12,Muongozo group,5,5,0,,0,CBO,CBRM,,-7.9882586,38.7542808
Pwani,Rufiji,Utete,kiwili,65002,1.12,Rufiji Initiatives Development,24,12,12,,0,CBO,PPRA,,-7.9915406,38.7592835
Pwani,Rufiji,Utete,kiwili,65002,1.12,Boresha Maisha,5,4,1,,0,CBO,,,-7.9892536,38.7562246
Pwani,Rufiji,Utete,kiwili,65002,1.12,Bravo Arts Group,5,4,1,,0,CBO,CMG,,-7.9896564,38.7577983
Pwani,Rufiji,Utete,kiwili,65060,0.5,Maendeleo Vijana Utete,5,1,4,,0,TASAF,,,-7.9927362,38.757953
Pwani,Rufiji,Utete,kiwili,65060,0.5,Muongozo group,5,5,0,,0,CBO,CBRM,,-7.9882586,38.7542808
Pwani,Rufiji,Utete,kiwili,65003,0.15,Maendeleo Vijana Utete,5,1,4,,0,TASAF,,,-7.9927362,38.757953
Pwani,Rufiji,Utete,kiwili,65003,0.15,Kilimo kwanza kiwili ,5,5,0,,0,CBO,,,-7.9891485,38.7540462
Pwani,Rufiji,Utete,kiwili,65003,0.15,Boresha Maisha,5,4,1,,0,CBO,,,-7.9892536,38.7562246
Pwani,Rufiji,Utete,Kiitundu,65003,0.15,Ikra,26,25,1,,0,CBO,PPRA,,-7.9892311,38.7563215
Pwani,Rufiji,Utete,Kiitundu,65003,0.15,Amani group,25,25,0,,0,CBO,,,-7.9925439,38.7589254
Pwani,Rufiji,Utete,Kiwili,65005,0.4,Tujumuke group,7,7,0,,0,CMG,,,-7.9920445,38.7566903
Pwani,Rufiji,Utete,Kiwili,65005,0.4,Kilimo kwanza kiwili ,5,5,0,,0,CBO,,,-7.9891485,38.7540462
Pwani,Rufiji,Utete,Kiwili,65005,0.4,Boresha Maisha,5,4,1,,0,CBO,,,-7.9892536,38.7562246
Pwani,Rufiji,Utete,Kiwili,65086,0.43,Rufiji Initiatives Development,24,12,12,,0,CBO,PPRA,,-7.9915406,38.7592835
Pwani,Rufiji,Utete,Kiwili,65086,0.43,Vijana kazi iendelee,5,1,4,,0,CBO,,,-7.989719,38.7579784
Pwani,Rufiji,Utete,Kiwili,65028,8,jipangeni kilingogo,10,10,0,,0,CBO,,,-7.9932779,38.7316232
Pwani,Rufiji,Utete,Kiwili,65028,8,Rufiji Initiatives Development ,24,12,12,,0,CBO,PPRA,,-7.9915406,38.7592835
Pwani,Rufiji,Utete,Siasa,65028,8,Wanawake hapa kazi,5,5,0,,0,CBO,,,-7.9887046,38.6697221
Pwani,Rufiji,Utete,Kiwili,65073,0.32,Muongozo group,5,5,0,,0,CBO,CBRM,,-7.9882586,38.7542808
Pwani,Rufiji,Utete,Kiwili,65073,0.32,Boresha Maisha,5,4,1,,0,CBO,,,-7.9892536,38.7562246
Pwani,Rufiji,Utete,kitundu,65016,0.35,kusile group,8,0,8,,0,CBO,,,-7.9959161,38.755344
Pwani,Rufiji,Utete,kitundu,65016,0.35,Vijana kazi iendelee,5,1,4,,0,CBO,,,-7.989719,38.7579784
Pwani,Rufiji,Utete,kitundu,65016,0.35,Ikra,26,25,1,,0,CBO,PPRA,,-7.9892311,38.7563215
Pwani,Rufiji,Utete,kitundu,65016,0.35,Wasafi,11,10,1,,0,CBO,,,-7.9898218,38.7576924
Pwani,Rufiji,Utete,kitundu,65016,0.35,Bravo Arts Group,5,4,1,,0,CBO,CMG,,-7.9896564,38.7577983
Pwani,Rufiji,Utete,kitundu,65016,0.35,Amani group ,5,4,1,,0,CBO,,,-7.9925439,38.7589254
Pwani ,Rufiji,Chemchem,Golani,65001,20,kusile group,8,0,8,,0,CBO,,,-7.9959161,38.755344
Pwani ,Rufiji,Chemchem,Golani,65001,20,Tuwezeshane,18,15,3,,0,CBO,,,-7.9934521,38.7603854
Pwani ,Rufiji,Chemchem,Nyawanje,65001,20,Jikwamue,12,12,0,,0,TASAF,,,-8.1485755,38.68388
Pwani ,Rufiji,Chemchem,Nyawanje,65001,20,Nyasega,5,5,0,,0,CBO,,,-8.1276694,38.6906342
Pwani ,Rufiji,Chemchem,Golani,65082,1,Uchumi group,11,11,0,,0,CBO,,,-7.9973073,38.7631154
Pwani ,Rufiji,Chemchem,Golani,65082,1,Faidika group,30,26,4,,0,CBO,,,-7.9934572,38.7603841
Pwani ,Rufiji,Chemchem,Golani,65071,0.62,Uchumi group,11,11,0,,0,CBO,,,-7.9973073,38.7631154
Pwani ,Rufiji,Chemchem,Golani,65071,0.62,Faidika group,30,26,4,,0,CBO,,,-7.9934572,38.7603841
Pwani ,Rufiji,Chemchem,Golani,65071,0.62,Tuwezeshane,18,15,3,,0,CBO,,,-7.9984212,38.7609007
Pwani ,Rufiji,Utete,kiwili,65004,0.48,Kilimo kwanza kiwili ,5,5,0,,0,CBO,,,-7.9891485,38.7540462
Pwani ,Rufiji,Utete,kiwili,65004,0.48,Fanikisha,6,6,0,,0,CBO,,,-7.9972189,38.7622986
Pwani ,Rufiji,Chemchem,Golani,65089,1.17,Golani Tunaweza,5,5,0,,0,CBO,,,-7.9984212,38.7609007
Pwani ,Rufiji,Chemchem,Golani,65089,1.17,Faidika group,30,26,4,,0,CBO,,,-7.9934572,38.7603841
Pwani ,Rufiji,Chemchem,Golani,65072,1,Siasa group,5,5,0,,0,CBO,,,-7.9980012,38.7632977
Pwani ,Rufiji,Chemchem,Golani,65104,0.83,Siasa group,5,5,0,,0,CBO,,,-7.9980012,38.7632977
Pwani ,Rufiji,Utete,kiwili,65046,0.34,Fanikisha,6,6,0,,0,CBO,,,-7.9972189,38.7622986
Pwani ,Rufiji,Utete,kiwili,65046,0.34,Ikra,26,25,1,,0,CBO,PPRA,,-7.9892311,38.7563215
Pwani ,Rufiji,Utete,kiwili,65046,0.34,Golani Tunaweza,5,5,0,,0,CBO,,,-7.9984212,38.7609007
Pwani ,Rufiji,Chemchem,Golani,65070,0.84,Fanikisha,6,6,0,,0,CBO,,,-7.9972189,38.7622986
Pwani ,Rufiji,Chemchem,Kipei,65029,8.87,Mwanzo mgumu utunge,25,25,0,,0,CBO,,,-8.0137447,38.8600848
Pwani ,Rufiji,Chemchem,Kipei,65029,8.87,Jikomboe namba 2,14,10,4,,0,CBO,,,-8.0131797,38.856598
Pwani,Rufiji,Mohoro ,Shela,65009,14,Umoja wa wanawake shela,15,15,0,,0,CBO,PPRA,,-8.1465058,39.1781704
Pwani,Rufiji,Mohoro ,Mohoro magharibi,65009,14,4ways city,5,0,5,,0,CBO,PPRA,,-8.1418885,39.1799338
Pwani,Rufiji,Mohoro ,Mohoro magharibi,65009,14,Bodaboda wapambanaji,5,0,5,,0,CBO,PPRA,,-8.1458391,39.1787887
Pwani,Rufiji,Mohoro ,Mohoro magharibi,65009,14,Vijana group,5,0,5,,0,CBO,PPRA,,-8.1420867,39.1802377
Pwani,Rufiji,Mbwara,Nyamwage,65010,28,Kimbore mbore group,14,14,0,,0,CBO,,,-8.1288413,38.9960323
Pwani,Rufiji,Mbwara,Nyamwage,65010,28,Nyamwage bodaboda group,6,0,6,,0,CBO,,,-8.1284625,38.9966489
Pwani,Rufiji,Mbwara,Nyamwage,65010,28,Jembe,9,9,0,,0,CBO,,,-8.1265158,38.9968311
Pwani,Rufiji,Mbwara,Nyamwage,65010,28,Mwangaza Nyamwage group,20,20,0,,0,CBO,,,-8.1317507,38.9954715
Pwani,Rufiji,Mbwara,Nyamwage,65010,28,Umoja ni Nguvu,14,14,0,,0,TASAF,,,-8.1283795,38.9965923
Pwani,Rufiji,Mbwara,Nyamwage,65010,28,Tujikwamwue nyamwage,15,13,2,,0,CBO,TASAF,,-8.1295931,38.9964549
Pwani,Rufiji,Mbwara,Nyamwage,65010,28,Mbwara ya kijani bodaboda,6,0,6,,0,CBO,,,-8.2412392,39.0229345
Pwani,Rufiji,Mbwara,Nyamwage,65010,28,Jikomboe Mbwara,5,2,3,,0,CBO,,,-8.250393,39.0107986
Pwani,Rufiji,Mbwara,Nyamwage,65010,28,Makubaliano,5,5,0,,0,CBO,,,-8.2409885,39.0215566
Pwani,Rufiji,Mbwara,Nyamwage,65010,28,Muungano Mbwara,12,12,0,,0,CBO,,,-8.2410004,39.0216422
Pwani,Rufiji,Mbwara,Mbwara,65010,28,Umoja wa usafirishaji nambunju,5,0,5,,0,CBO,,,-8.3174714,38.988503
Pwani,Rufiji,Mbwara,Mbwara,65010,28,Kikundi cha Umoja wa bodaboda,8,0,8,,0,CBO,,,-8.3175087,38.9884858
Pwani,Rufiji,Mbwara,Mbwara,65010,28,Mama na Maendeleo Nambunju,7,7,0,,0,CBO,PPRA,CMG,-8.3165114,38.9879315
Pwani,Rufiji,Mbwara,Mbwara,65010,28,Nambunju Tuendelee bodaboda,7,0,7,,0,CBO,,,-8.3174858,38.9885095
Pwani,Rufiji,Mbwara,Mbwara,65010,28,Uhakika,5,2,3,,0,CBO,,,-8.3175293,38.9885166
Pwani,Rufiji,Mbwara,Mbwara,65052,12.1,Hatutaki Shari 2025,5,0,5,,0,CBO,,,-8.3265899,39.0546392
Pwani,Rufiji,Mbwara,Mbwara,65052,12.1,Mkombozi Kitapi,9,1,8,,0,CBO,,,-8.3265846,39.0546466
Pwani,Rufiji,Ikwiriri,Ikwiri kusini,65115,2.39,Inuka Ikwiriri Kati ,5,2,3,,0,CBO,PPRA,,-7.9452122,38.9803729
Pwani,Rufiji,Ikwiriri,Ikwiri kusini,65115,2.39,Uzalendo group,6,6,0,,0,CBO,PPRA,,-7.9477585,38.9795674
Pwani,Rufiji,Ikwiriri,Ikwiri kusini,65115,2.39,Tujijenge,10,10,0,,0,TASAF,,,-7.9441662,38.977511
Pwani,Rufiji,Ikwiriri,Ikwiri kusini,65133,1,Unitrust vijana group,5,2,3,,0,CBO,PPRA,CRB,-7.9413685,38.9804919
Pwani,Rufiji,Ikwiriri,Ikwiri kusini,65133,1,Rufiji cleaners,6,3,3,,0,CBO,PPRA,,-7.9423871,38.9763797
Pwani,Rufiji,Umwe,Umwe kusini,65012,6,Kazi Iendelee ,10,10,0,,0,CBO,,,-7.9529976,38.9907546
Pwani,Rufiji,Umwe,Umwe kusini,65012,6,Jitegemee Group ,5,5,0,,0,CBO,,,-7.9531561,38.9897051
Pwani,Rufiji,Umwe,Umwe kusini,65012,6,Tujuajiri Agriculture Group ,5,1,4,,0,CBO,,,-7.955648,39.0198781
Pwani,Rufiji,Umwe,Umwe kusini,65012,6,Tangini Umoja Group ,5,1,4,,0,CBO,,,-7.9503408,38.9878197
Pwani,Rufiji,Ikwiriri,Ikwiriri Kaskazini,65011,1,Kaunda magengeni,5,0,5,,0,CBO,,,-7.9420721,38.9813945
Pwani,Rufiji,Ikwiriri,Ikwiriri Kaskazini,65139,1,Wachonga vinyago,5,3,2,,0,CBO,,,-7.9429687,38.9815834
Pwani,Rufiji,Ikwiriri,kazamoyo,65136,0.2,Vijana Musoma group,5,3,1,,0,CBO,,,-7.9033113,38.9708191
Pwani,Rufiji,Ikwiriri,Ikwiriri Kusini,65024,1,Kipepeo Tangimbili,5,5,0,,0,CBO,PPRA,,-7.9532799,38.9824647
Pwani,Rufiji,Umwe,Umwe kati,65019,0.34,Uhai ,5,5,0,,0,CBO,,,-7.949975,38.9909863
Pwani,Rufiji,Umwe,Umwe kati,65019,0.34,Wanawake Tusongembele ,5,5,0,,0,CBO,,,-7.9500163,38.9888266
Pwani,Rufiji,Umwe,Umwe kati,65019,0.34,Ondoa Shaka  Sokoni,25,25,0,,0,CBO,,,-7.9500184,38.9864791
Pwani,Rufiji,Umwe,Umwe kati,65019,0.34,Kilimo Kwanza ,5,0,5,,0,CBO,PPRA,,-7.9468928,38.9886593
Pwani,Rufiji,Umwe,Umwe kati,65019,0.34,Tujiendeleze Group ,9,3,6,,0,CBO,PPRA,,-7.9489518,38.9885304
Pwani,Rufiji,Umwe,Umwe kati,65019,0.34,Tunashona Group ,5,2,3,,0,CBO,PPRA,,-7.9499176,38.9869616
Pwani,Rufiji,Ikwiriri,Ikwiriri Kaskazini,65137,7,Ukombozi Group ,5,1,4,,0,CBO,PPRA,,-7.93181,38.9767959
Pwani,Rufiji,Ikwiriri,Ikwiriri Kaskazini,65137,7,Maono Group ,6,0,6,,0,CBO,PPRA,,-7.93181,38.9767959
Pwani,Rufiji,Ikwiriri,Ikwiriri Kaskazini,65137,7,Idara One Jogging ,14,2,12,,0,CBO,PPRA,,-7.9294595,38.9766867
Pwani,Rufiji,Mbwara,Nyamwage,65031,10,Kimbore Mbore Group ,14,14,0,,0,CBO,,,-8.1288413,38.9960323
Pwani,Rufiji,Mbwara,Nyamwage,65031,10,Nyamwage Boda boda group ,6,0,6,,0,CBO,,,-8.1284625,38.9966489
Pwani,Rufiji,Mbwara,Nyamwage,65031,10,Jembe ,9,9,0,,0,CBO,,,-8.1265158,38.9968311
Pwani,Rufiji,Mbwara,Nyamwage,65031,10,Mwangaza Nyawage Group,20,20,0,,0,CBO,,,-8.1317507,38.9954715
Pwani,Rufiji,Mohoro,Mihiru,65108,14,Mijohoro,5,0,5,,0,CBO,,,-8.311754,39.119828
Pwani,Mkuranga,Lukanga,Misasa,64007,21.79,Bodaboda Magawa,11,1,10,,0,CBO,PPRA,,-7.4573569,39.2593493
Pwani,Mkuranga,Lukanga,Misasa,64007,21.79,Magawa bodaboda,9,0,9,,0,CBO,PPRA,,-7.4569316,39.2579506
Pwani,Mkuranga,Magawa,Makumbea,64007,21.79,Samia dadaz,11,11,0,,0,CBO,PPRA,,-7.3980858,39.2353897
Pwani,Mkuranga,Magawa,Makumbea,64007,21.79,Amani na upendo,13,12,1,,0,CBO,PPRA,,-7.3980858,39.2353897
Pwani,Mkuranga,Magawa,Makumbea,64007,21.79,Samia tochi yetu,8,8,0,,0,CBO,PPRA,,-7.3980858,39.2353897
Pwani,Mkuranga,Magawa,Makumbea,64007,21.79,Samia babaz,5,0,5,,0,CBO,PPRA,,-7.3980858,39.2353897
Pwani,Mkuranga,Mkamba,Kizomla,64035,21.33,Hamasika,17,5,12,,0,CBO,PPRA,,-7.3184401,38.9753349
Pwani,Mkuranga,Mkuranga,Mkolia,64063,7.91,Marathon Sanitary,7,1,6,,0,CBO,PPRA,,-7.1207613,39.2040015
Pwani,Mkuranga,Mkuranga,Mkolia,64063,7.91,Good boys,14,0,14,Dis,1,CBO,PPRA,,-7.1317324,39.2112573
Pwani,Mkuranga,Vikindu,Vikindu,64003,18.65,Mshikamano Family group,30,7,23,,0,CBO,PPRA,,-7.0037674,39.3110921
Pwani,Mkuranga,Vianzi,Vianzi,64003,18.65,UMABAVI,30,0,30,,0,CBO,PPRA,,-7.0037473,39.3110883
Pwani,Mkuranga,Vianzi,Vianzi,64003,18.65,Vijana Majumba Sita,5,0,5,,0,CBO,PPRA,,-7.0602894,39.3541559
Pwani,Mkuranga,Vianzi,Vianzi,64003,18.65,Wanawake kazi,10,10,0,,0,CBO,PPRA,,-7.0837579,39.3781661
Pwani,Mkuranga,Vianzi,Vianzi,64003,18.65,Imara Songora,14,8,6,,0,CBO,PPRA,,-7.0979567,39.3813336
Pwani,Mkuranga,Vikindu,Vikindu,64061,11.09,Mishikamano Family Group ,30,7,23,,0,CBO,PPRA,,-7.0037674,39.3110921
Pwani,Mkuranga,Vikindu,Vikindu,64061,11.09,Umabavi ,30,0,30,,0,CBO,PPRA,,-7.0037473,39.3110883
Pwani,Mkuranga,Vikindu,Kazole,64061,11.09,Vijana Transpoters,36,0,36,Dis,1,CBO,PPRA,,-7.0107626,39.3500411
Pwani,Mkuranga,Panzua,Mbulani,64014,36.24,Nyatanga Solution,9,1,8,,0,CBO,PPRA,,-7.2961395,38.9917254
Pwani,Mkuranga,Bupu,Bupu,64014,36.24,Jukwaa la vijana kijiji cha bupu,9,0,9,,0,CBO,PPRA,,-7.1742831,39.0578761
Pwani,Mkuranga,Bupu,Bupu,64014,36.24,Jukwaa la vijana kata ya bupu,20,2,18,,0,CBO,PPRA,,-7.2005472,39.0256242
Pwani,Mkuranga,Bupu,Bupu,64014,36.24,Vijana Tuamke,7,0,7,,0,CBO,PPRA,,-7.1742695,39.0578152
Pwani,Mkuranga,Bupu,Mamli mpela,64014,36.24,Nyuki ni mali,8,5,3,,0,CBO,PPRA,,-7.1795521,39.0761237
Pwani,Mkuranga,Bupu,Mamli mpela,64014,36.24,Magazijuto,10,8,2,Dis,1,CBO,PPRA,,-7.152928,39.177415
Pwani,Mkuranga,Bupu,Mamli mpela,64014,36.24,Mwendokasi,9,7,2,,0,CBO,PPRA,,-7.15374,39.178912
Pwani,Mkuranga,Bupu,Mamli mpela,64014,36.24,Peace and love,17,17,0,,0,CBO,PPRA,,-7.15374,39.178912
Tanga,Pangani,Pangani Magharibi ,Kumba,45156,0.16,Muungano Wanawake,9,9,0,,0,CMG,,,-5.4155026,38.9735214
Tanga,Pangani,Pangani Magharibi ,Majengo,45070,0.4,Majengo Boda,6,0,6,,0,CMG,,,-5.419498,38.980352
Tanga,Pangani,Pangani Magharibi ,Majengo,45070,0.4,Garicheni,5,5,0,,0,CMG,,,-5.419498,38.980352
Tanga,Pangani,Pangani Magharibi ,Majengo,45066,0.44,Garicheni,5,5,0,,0,CMG,,,-5.4193765,38.9767852
Tanga,Pangani,Pangani Magharibi ,Kumba,45134,0.46,Mikingamo,14,12,2,,0,CMG,,,-5.4130007,38.973731
Tanga,Pangani,Pangani Magharibi ,Mnyongeni ,45077,2.4,Upendo Vicoba,5,5,0,,0,CMG,,,-5.4170759,38.9840828
Tanga,Pangani,Pangani Magharibi ,Mnyongeni ,45077,2.4,Amana,3,3,0,,0,CMG,,,-5.4170759,38.9840828
Tanga,Pangani,Pangani Magharibi ,Kumba,45122,0.2,Jeshi la Mama Magharibi,5,5,0,,0,CMG,,,-5.4226121,38.9703398
Tanga,Pangani,Pangani Magharibi ,Kumba,45122,0.2,Four Women,5,5,0,,0,CMG,,,-5.4226121,38.9703398
Tanga,Pangani,Pangani Magharibi ,Kumba,45122,0.2,Smart Help Boda,9,0,9,,0,CMG,,,-5.4226121,38.9703398
Tanga,Pangani,Pangani Magharibi ,Ferry Kumbamtoni,45038,6,Nguvu Kazi Magharibi,12,11,1,,0,CMG,,,-5.3865568,38.9517846
Tanga,Pangani,Pangani Magharibi ,Ferry Kumbamtoni,45038,6,Kikosi Kazi Boda Group,5,1,4,,0,CMG,,,-5.3865568,38.9517846
Tanga,Pangani,Pangani Magharibi ,Ferry Kumbamtoni,45038,6,Ujamaa Boda Group,5,0,5,,0,CMG,,,-5.3865568,38.9517846
Tanga,Pangani,Pangani Magharibi ,Ferry Kumbamtoni,45038,6,Hatupoi Boda Group,6,0,6,,0,CMG,,,-5.3865568,38.9517846
Tanga,Pangani,Pangani Magharibi,Sokoni,45010,0.44,Amani Group,7,7,0,,0,CMG,,,-5.4226891,38.9780912
Tanga,Pangani,Pangani Magharibi,Sokoni,45010,0.44,Upendo Group,7,7,0,,0,CMG,,,-5.4226891,38.9780912
Tanga,Pangani,Pangani Magharibi ,Kinarani,45012,0.21,Uhuru Group,10,8,2,,0,CMG,,,-5.4291141,38.9760316
Tanga,Pangani,Pangani Magharibi ,Kinarani,45012,0.21,Changaule Group,5,1,4,,0,CMG,,,-5.4291141,38.9760316
Tanga,Pangani,Pangani Magharibi ,Sokoni,45107,0.58,Jikwamue Group,5,4,1,,0,CMG,,,-5.4249849,38.9738528
Tanga,Pangani,Pangani Magharibi ,Sokoni,45107,0.58,Nguvu Moja Group,5,0,5,,0,CMG,,,-5.4249849,38.9738528
Tanga,Pangani,Pangani Magharibi ,Kinarani,45003,0.39,Madereva Guta Group,2,0,2,,0,CMG,,,-5.4235475,38.9757802
Tanga,Pangani,Pangani Magharibi ,Kinarani,45003,0.39,Neema Group,8,8,0,,0,CMG,,,-5.4235475,38.9757802
Tanga,Pangani,Pangani Magharibi ,Sokoni,45009,0.2,Maendeleo Group,5,5,0,,0,CMG,,,-5.4247648,38.9761562
Tanga,Pangani,Pangani Magharibi ,Sokoni,45009,0.2,Wanawake na Uchumi Group,5,5,0,,0,CMG,,,-5.4247648,38.9761562
Tanga,Pangani,Pangani Magharibi ,Sokoni,45009,0.32,Masterfence Group,5,0,5,,0,CMG,,,-5.4247715,38.9756374
Tanga,Pangani,Pangani Magharibi ,Sokoni,45007,1.27,Vijana Group,5,0,5,,0,CMG,,,-5.4167958,38.9747936
Tanga,Pangani,Pangani Magharibi ,Sokoni,45007,1.27,Mshikamano Sokoni Group,9,9,0,,0,CMG,,,-5.4167958,38.9747936
Tanga,Pangani,Pangani Magharibi ,SOKONI ROAD,45011,0.72,Tunaweza Boda Group,5,0,5,,0,CMG,,,-5.4234585,38.9739673
Tanga,Pangani,Pangani Magharibi ,Kumba,45001,2.38,Mwikujaiwa,5,5,0,,0,CMG,,,-5.4057183,38.9760528
Tanga,Pangani,Pangani Magharibi ,Kumba,45001,2.38,Jipe Moyo Group,12,12,0,,0,CMG,,,-5.4057183,38.9760528
Tanga,Pangani,Pangani Magharibi ,Mnyongeni,45001,2.38,Azimio Group,5,5,0,,0,CMG,,,-5.4057183,38.9760528
Tanga,Pangani,Pangani Magharibi ,kumba,45001,2.38,Umoja Group,13,13,0,,0,CMG,,,-5.4057183,38.9760528
Tanga,Pangani,Pangani Mashariki,Majengo Sokoni,45069,0.99,Hali ya Moyo Group,7,7,0,,0,CMG,,,-5.4168069,38.9792345
Tanga,Pangani,Pangani Mashariki,Majengo Sokoni,45069,0.99,Furaha group Mashariki,9,9,0,,0,CMG,,,-5.4168069,38.9792345
Tanga,Pangani,Pangani Mashariki,Gombero,45128,1.33,Nguvu Kazi Group Mashariki,13,11,2,,0,CMG,,,-5.4209005,38.976427
Tanga,Pangani,Pangani Mashariki,Funguni,45014,1.05,Kazi Iendelee Group,3,3,0,,0,CMG,,,-5.427674,38.9823948
Tanga,Pangani,Pangani Mashariki,Funguni,45014,1.05,Magalawani A Group,12,12,0,,0,CMG,,,-5.427674,38.9823948
Tanga,Pangani,Pangani Mashariki,Funguni,45014,1.05,Magalawani B Group,10,10,0,,0,CMG,,,-5.427674,38.9823948
Tanga,Pangani,Pangani Mashariki,Funguni,45016,0.44,Ushirika Group,5,5,0,,0,CMG,,,-5.4275949,38.9781794
Tanga,Pangani,Pangani Mashariki,Funguni,45016,0.44,Keepleft Group,4,0,4,,0,CMG,,,-5.4275949,38.9781794
Tanga,Pangani,Pangani Mashariki,Funguni,45026,0.24,Mazingira BMU Group,5,1,4,,0,CMG,,,-5.4295039,38.9782592
Tanga,Pangani,Pangani Mashariki,Funguni,45076,0.38,Ujamaa Funguni,5,5,0,,0,CMG,,,-5.4276507,38.982402
Tanga,Pangani,Pangani Mashariki,Funguni,45098,0.95,Jitegemee Group,14,14,0,,0,CMG,,,-5.4224482,38.9828511
Tanga,Pangani,Pangani Mashariki,Kwa Msocha,45085,1.65,Amani Group,5,5,0,,0,CMG,,,-5.407368,39.0146642
Tanga,Pangani,Kimanga,Boza,45029,8.9,Samaria Women Group,7,7,0,,0,CMG,,,-5.3684585,39.014631
Tanga,Pangani,Kimanga,Boza,45029,8.9,Tunaweza Group,5,5,0,,0,CMG,,,-5.3684585,39.014631
Tanga,Pangani,Pangani Mashariki,Funguni,45108,0.8,Jeshi la Mama Mashariki,15,15,0,,0,CMG,,,-5.4069606,38.9929675
Tanga,Pangani,Pangani Mashariki,Funguni,45101,0.26,Local Fundi Group,4,1,3,,0,CMG,,,-5.4173748,38.9852292
Tanga,Pangani,Kimanga,Madanga,45119,7.6,Mwanzo mgumu group,12,10,2,,0,CMG,,,-5.3498224,38.9832178
Tanga,Pangani,Kimanga,Madanga,45119,7.6,Umoja ni nguvu group,11,11,0,,0,CMG,,,-5.3498224,38.9832178
Tanga,Pangani,Kimanga,Madanga,45119,7.6,Furaha group (Madanga),10,10,0,,0,CMG,,,-5.3498224,38.9832178
Tanga,Pangani,Kimanga,Madanga,45119,7.6,Mapambano group (Mwembeni),15,14,1,,0,CMG,,,-5.3498224,38.9832178
Tanga,Pangani,Kimanga,Madanga,45119,7.6,Upendo group (Mwembeni),10,8,2,,0,CMG,,,-5.3498224,38.9832178
Tanga,Pangani,Kimanga,Madanga,45119,7.6,Vumilia group,10,10,0,,0,CMG,,,-5.3498224,38.9832178
Tanga,Pangani,Kimanga,Madanga,45119,7.6,Mshikamano group (Madanga),12,10,2,,0,CMG,,,-5.3498224,38.9832178
Tanga,Pangani,Kimanga,Kimanga,45030,2.06,Mshikamano group,5,3,2,,0,CMG,,,-5.365945,39.0341232
Tanga,Pangani,Kimanga,Kimanga,45030,2.06,Tusonge mbele group,5,5,0,,0,CMG,,,-5.365945,39.0341232
Tanga,Pangani,Kimanga,Kimanga,45030,2.06,Tupendane group,5,5,0,,0,CMG,,,-5.365945,39.0341232
Tanga,Pangani,Kimanga,Kimanga,45030,2.06,Asaserama group,5,5,0,,0,CMG,,,-5.365945,39.0341232
Tanga,Pangani,Kimanga,Kimanga,45030,2.06,Vanila group,5,5,0,,0,CMG,,,-5.365945,39.0341232
Tanga,Pangani,Kimanga,Kimanga,45030,2.06,Vijana kazi iendelee group,5,2,3,,0,CMG,,,-5.365945,39.0341232
Tanga,Pangani,Kimanga,Kimanga,45030,2.06,Timu faita group,5,5,0,,0,CMG,,,-5.365945,39.0341232
Tanga,Pangani,Kimanga,Kimanga,45030,2.06,Mapambano group,5,2,3,,0,CMG,,,-5.365945,39.0341232
Tanga,Pangani,Kimanga,Kimanga,45030,2.06,Nguvu y mtaji ni kupambana group,5,2,3,,0,CMG,,,-5.365945,39.0341232
Tanga,Pangani,Kimanga,Kimanga,45030,2.06,Mwambao group,5,5,0,,0,CMG,,,-5.365945,39.0341232
Tanga,Pangani,Kimanga,Kimanga,45030,2.06,Baraka women group,5,5,0,,0,CMG,,,-5.365945,39.0341232
Tanga,Pangani,Kimanga,Kimanga,45030,2.06,Basuwa women group,5,5,0,,0,CMG,,,-5.365945,39.0341232
Tanga,Pangani,Kimanga,Kimanga,45030,2.06,Tusaidiane vijana group,5,2,3,,0,CMG,,,-5.365945,39.0341232
Tanga,Pangani,Madanga,Kimanga,45033,3.65,Wachapakazi group,5,5,0,,0,CMG,,,-5.3611285,39.0164251
Tanga,Pangani,Madanga,Kimanga,45033,3.65,Umoja group,5,5,0,,0,CMG,,,-5.3611285,39.0164251
Tanga,Pangani,Madanga,Kimanga,45033,3.65,Muungano group,5,5,0,,0,CMG,,,-5.3611285,39.0164251
Tanga,Pangani,Madanga,Kimanga,45033,3.65,Ushirikiano ni nguvu group,5,5,0,,0,CMG,,,-5.3611285,39.0164251
Tanga,Pangani,Madanga,Kimanga,45033,3.65,Wasafi group,5,5,0,,0,CMG,,,-5.3611285,39.0164251
Tanga,Pangani,Madanga,Kimanga,45033,3.65,Tunaweza group (Kimanga),3,2,1,,0,CMG,,,-5.3611285,39.0164251
Tanga,Pangani,Madanga,Kimanga,45033,3.65,Mshikamano group (Kimanga),4,4,0,,0,CMG,,,-5.3611285,39.0164251
Tanga,Pangani,Madanga,Kimanga,45033,3.65,Jitengeni group,3,2,1,,0,CMG,,,-5.3611285,39.0164251
Tanga,Pangani,Madanga,Kimanga,45033,3.65,Jitegemee group,3,3,0,,0,CMG,,,-5.3611285,39.0164251
Tanga,Pangani,Madanga,Kimanga,45033,3.65,Vijana kazi group,5,0,5,,0,CMG,,,-5.3611285,39.0164251
Tanga,Pangani,Madanga,Kimanga,45033,3.65,Tupendane group (Kimanga),4,4,0,,0,CMG,,,-5.3611285,39.0164251
Tanga,Pangani,Madanga,Kimanga,45033,3.65,Umoja ni nguvu black,3,3,0,,0,CMG,,,-5.3611285,39.0164251
Tanga,Pangani,Bushiri,Msaraza ,45153,9,Upendo Group,22,11,11,,0,CMG,,,-5.3831995,38.9493651
Tanga,Pangani,Bushiri,Msaraza ,45153,9,Jiinue Group,27,20,7,,0,CMG,,,-5.3831995,38.9493651
Tanga,Pangani,Bushiri,Msaraza ,45153,9,Wakama Group,9,6,3,,0,CMG,,,-5.3831995,38.9493651
Tanga,Pangani,Bushiri,Msaraza ,45153,9,Nguvu Kazi Group,22,18,4,,0,CMG,,,-5.3831995,38.9493651
Tanga,Pangani,Bushiri,Mivumoni,45037,4.65,Umoja ni Nguvu Group,9,9,0,,0,CMG,,,-5.283761,38.9292711
Tanga,Pangani,Bushiri,Mivumoni,45037,4.65,Amani Group,8,7,1,,0,CMG,,,-5.283761,38.9292711
Tanga,Pangani,Bushiri,Mivumoni,45037,4.65,Nguvu Kazi Group,15,7,8,,0,CMG,,,-5.283761,38.9292711
Tanga,Pangani,Bushiri,Mivumoni,45037,4.65,Jiendeleze Group,22,12,10,,0,CMG,,,-5.283761,38.9292711
Tanga,Pangani,Bushiri,Mivumoni,45037,4.65,Upendo Group,12,9,3,,0,CMG,,,-5.283761,38.9292711
Tanga,Pangani,Bushiri,Mivumoni,45037,4.65,Sayari Mvumo,13,3,10,,0,CMG,,,-5.283761,38.9292711
Tanga,Pangani,Bushiri,Mivumoni,45037,4.65,Mwendokasi Group,7,7,0,,0,CMG,,,-5.283761,38.9292711
Tanga,Pangani,Bushiri,Mivumoni,45037,4.65,Jipe Moyo,7,3,4,,0,CMG,,,-5.283761,38.9292711
Tanga,Pangani,Bushiri,Madanga,45035,7.97,Wapendanao group ,11,11,0,,0,CMG,,,-5.3638078,38.977174
Tanga,Pangani,Bushiri,Madanga,45035,7.97,Twaweza group,14,12,2,,0,CMG,,,-5.3638078,38.977174
Tanga,Pangani,Bushiri,Madanga,45035,7.97,Amkeni group,12,12,0,,0,CMG,,,-5.3638078,38.977174
Tanga,Pangani,Bushiri,Madanga,45035,7.97,Utulivu group ,10,10,0,,0,CMG,,,-5.3638078,38.977174
Tanga,Pangani,Bushiri,Madanga,45035,7.97,Umoja Wetu group,13,12,1,,0,CMG,,,-5.3638078,38.977174
Tanga,Pangani,Bushiri,Madanga,45035,7.97,Kazamoyo group,10,10,0,,0,CMG,,,-5.3638078,38.977174
Tanga,Pangani,Bushiri,Msaraza,45035,7.97,Kaskazini group,18,7,12,,0,CMG,,,-5.3638078,38.977174
Tanga,Pangani,Bushiri,Msaraza,45035,7.97,Tumaini Group,15,11,4,,0,CMG,,,-5.3638078,38.977174
Tanga,Pangani,Bushiri,Msaraza,45035,7.97,Tupambane Group,9,8,1,,0,CMG,,,-5.3638078,38.977174
Tanga,Pangani,Bushiri,Msaraza,45035,7.97,Umoja ni Nguvu Group,22,14,8,,0,CMG,,,-5.3638078,38.977174
Tanga,Pangani,Bushiri,Msaraza,45035,7.97,Jiwezeshe Group,14,14,,,,CMG,,,-5.3638078,38.977174
Tanga,Pangani,Bushiri,Msaraza,45115,3.2,Reto Group,12,11,1,,0,CMG,,,-5.3656026,38.9562224
Tanga,Pangani,Bushiri,Msaraza,45115,3.2,Mafanikio Group,25,23,2,,0,CMG,,,-5.3656026,38.9562224
Tanga,Pangani,Bushiri,Msaraza,45115,3.2,Hiari ya Moyo Group,37,32,5,,0,CMG,,,-5.3656026,38.9562224
Tanga,Pangani,Bushiri,Msaraza,45115,3.2,Mwidau Group,21,21,0,,0,CMG,,,-5.3656026,38.9562224
Tanga,Pangani,Bushiri,Msaraza,45115,3.2,Jitegemee Group,9,9,0,,0,CMG,,,-5.3656026,38.9562224
Tanga,Pangani,Bushiri,Kovukovu ,45113,12,Kovukovu 1 Group,15,13,2,,0,CMG,,,-5.3990118,38.9129042
Tanga,Pangani,Bushiri,Kovukovu ,45113,12,Kazi Iendelee Group,10,10,0,,0,CMG,,,-5.3990118,38.9129042
Tanga,Pangani,Bushiri,Kovukovu ,45113,12,Usife Moyo Group,11,11,0,,0,CMG,,,-5.3990118,38.9129042
Tanga,Pangani,Mkalamo,Mkalamo,45110,7,Mama Samia,5,5,0,,0,CMG,,,-5.8063952,38.6701362
Tanga,Pangani,Mkalamo,Mkalamo,45110,7,Furaha Group,9,9,0,,0,CMG,,,-5.8063952,38.6701362
Tanga,Pangani,Mkalamo,Mkalamo,45110,7,Kombaini Group,30,13,17,,0,CMG,,,-5.8063952,38.6701362
Tanga,Pangani,Mkalamo,Mbulizaga,45059,4,Leo Tena Group,8,0,8,,0,CMG,,,-5.7529203,38.6974244
Tanga,Pangani,Mkalamo,Mbulizaga,45059,4,Upendo Group,5,5,0,,0,CMG,,,-5.7529203,38.6974244
Tanga,Pangani,Mkalamo,Mbulizaga,45059,4,Uaminifu Group,7,5,2,,0,CMG,,,-5.7529203,38.6974244
Tanga,Pangani,Kipumbwi,Kwa Kibuyu,45051,3.46,Mapambano Sakura,9,0,9,,0,CMG,,,-5.6310706,38.9089288
Tanga,Pangani,Kipumbwi,Kwa Kibuyu,45051,3.46,Kipumbwi youth organization ,5,3,2,,0,CMG,,,-5.6310706,38.9089288
Tanga,Pangani,Kipumbwi,Kipumbwi,45051,3.46,Songambele group,10,10,0,,0,CMG,,,-5.6310706,38.9089288
Tanga,Pangani,Kipumbwi,kipumbwi,45051,3.46,Maendeleo Daima,10,7,3,,0,CMG,,,-5.6310706,38.9089288
Tanga,Pangani,Kipumbwi,kipumbwi,45051,3.46,Kiroho safi group,8,8,0,,0,CMG,,,-5.6310706,38.9089288
Tanga,Pangani,Kipumbwi,kipumbwi,45051,3.46,Jikwamue group,5,2,3,,0,CMG,,,-5.6310706,38.9089288
Tanga,Pangani,Kipumbwi,kipumbwi,45051,3.46,Jitegemee group,7,7,0,,0,CMG,,,-5.6310706,38.9089288
Tanga,Pangani,Mikinguni,Stahabu,45111,4.22,Wanaharakati,20,14,6,,0,CMG,,,-5.5777605,38.9435217
Tanga,Pangani,Tungamaa,Tungamaa,45044,3.1,Ari Mpya,7,7,0,,0,CMG,,,-5.4967577,38.9428725
Tanga,Pangani,Tungamaa,Tungamaa,45044,3.1,Hekima,5,5,0,,0,CMG,,,-5.4967577,38.9428725
Tanga,Pangani,Tungamaa,Tungamaa,45044,3.1,Wazazi,5,5,0,,0,CMG,,,-5.4967577,38.9428725
Tanga,Pangani,Tungamaa,Tungamaa,45044,3.1,Vumilia,31,31,0,,0,CMG,,,-5.4967577,38.9428725
Tanga,Pangani,Tungamaa,Langoni,45043,31,Tafuta Hela,7,7,0,,0,CMG,,,-5.4842837,38.8904202
Tanga,Pangani,Tungamaa,Langoni,45043,31,Kazi Iendelee,15,4,12,,0,CMG,,,-5.4842837,38.8904202
Tanga,Pangani,Tungamaa,Langoni,45043,31,Kazi Kwanza,5,5,0,,0,CMG,,,-5.4842837,38.8904202
Tanga,Pangani,Tungamaa,Langoni,45043,31,Zingatia,5,0,5,,0,CMG,,,-5.4842837,38.8904202
Tanga,Pangani,Tungamaa,Langoni,45117,3,Songambele,7,7,0,,0,CMG,,,-5.4714638,38.9182542
Tanga,Pangani,Tungamaa,Langoni,45117,3,Mungu Atosha,5,5,0,,0,CMG,,,-5.4714638,38.9182542
Tanga,Pangani,Tungamaa,Langoni,45117,3,Maendeleo langoni,5,5,0,,0,CMG,,,-5.4714638,38.9182542
Tanga,Pangani,Bweni,Kikokwe,45040,9,Aweso group,29,29,0,,0,CMG,,,-5.4388482,38.9800604
Tanga,Pangani,Bweni,Kikokwe,45040,9,Tatonesting group,14,9,5,,0,CMG,,,-5.4388482,38.9800604
Tanga,Pangani,Bweni,Kikokwe,45040,9,Chapakazi group,14,12,2,,0,CMG,,,-5.4388482,38.9800604
Tanga,Pangani,Bweni,Kikokwe,45040,9,Mwanzo mgumu group ,29,17,12,,0,CMG,,,-5.4388482,38.9800604
Tanga,Pangani,Ubangaa,Mseko,45039,19,Jiwezeshe Group ,29,23,6,,0,CMG,,,-5.4478011,38.9372521
Tanga,Pangani,Ubangaa,Mseko,45039,19,Mguu wa kutoka group,5,5,0,,0,CMG,,,-5.4478011,38.9372521
Tanga,Pangani,Ubangaa,Mseko,45039,19,Nivushe Group,5,5,0,,0,CMG,,,-5.4478011,38.9372521
Tanga,Pangani,Ubangaa,Mseko,45039,19,Wanawake wajasiriamali group,5,5,0,,0,CMG,,,-5.4478011,38.9372521
Tanga,Pangani,Ubangaa,Mseko,45039,19,Uvumilivu Group,5,4,1,,0,CMG,,,-5.4478011,38.9372521
Tanga,Pangani,Ubangaa,Ubangaa,45039,19,Umoja ni nguvu group,19,19,0,,0,CMG,,,-5.4628471,38.8925465
Tanga,Pangani,Ubangaa,Ubangaa,45039,19,Mshikamano group ,12,12,0,,0,CMG,,,-5.4628471,38.8925465
Tanga,Pangani,Ubangaa,Ubangaa,45039,19,Upendo group,26,20,6,,0,CMG,,,-5.4628471,38.8925465
Tanga,Pangani,Ubangaa,Ubangaa,45039,19,Amani group ,1,0,1,Dis,1,CMG,,,-5.4628471,38.8925465
Tanga,Pangani,Ubangaa,Ubangaa,45039,19,Furaha group,10,9,1,,0,CMG,,,-5.4628471,38.8925465
Tanga,Pangani,Ubangaa,Meka,45039,19,Tupendane group ,6,6,0,,0,CMG,,,-5.4095155,38.8702355
Tanga,Pangani,Ubangaa,Meka,45039,19,Matumaini group,7,7,0,,0,CMG,,,-5.4095155,38.8702355
Tanga,Pangani,Ubangaa,Meka,45039,19,Utulivu group ,10,9,1,,0,CMG,,,-5.4095155,38.8702355
Tanga,Pangani,Ubangaa,Meka,45039,19,Changamoto group,13,9,4,,0,CMG,,,-5.4095155,38.8702355
Tanga,Pangani,Ubangaa,Mkwajuni,45053,5,Mafanikio group ,11,6,5,,0,CMG,,,-5.4114891,38.9243676
Tanga,Pangani,Ubangaa,Mkwajuni,45053,5,Maendeleo group ,18,11,7,,0,CMG,,,-5.4114891,38.9243676
Tanga,Pangani,Ubangaa,Mkwajuni,45053,5,Safari ni Hatua,1,0,1,Dis,1,CMG,,,-5.4114891,38.9243676
Tanga,Pangani,Ubangaa,Mkwajuni,45034,4,Tunaweza group ,7,7,0,,0,CMG,,,-5.4334299,38.9551227
Tanga,Pangani,Ubangaa,Mkwajuni,45034,4,Upendo group ,16,11,5,,0,CMG,,,-5.4334299,38.9551227
Tanga,Lushoto,Lushoto,Njia Panda Hospital,41063,3.52,Usambara hills group,5,2,3,,0,x,,,-4.7890027,38.2827334
Tanga,Lushoto,Lushoto,Chakechake,41059,1.55,Vijana bodaboda group,5,0,5,,0,CMG,,,-4.7945813,38.2924706
Tanga,Lushoto,Lushoto,Chakechake,41059,1.55,Wanawakaya group,6,6,0,,0,CMG,,,-4.7945813,38.2924706
Tanga,Lushoto,Lushoto,Chakechake,41059,1.55,Walumba group,5,0,5,,0,CMG,,,-4.7945813,38.2924706
Tanga,Lushoto,Lushoto,Chakechake,41059,1.55,Mawazo mapya group,5,0,5,,0,CMG,,,-4.7945813,38.2924706
Tanga,Lushoto,Lushoto,Chakechake,41059,1.55,Mshikamano soko la Shemndolwa group,6,6,0,,0,CMG,,,-4.7945813,38.2924706
Tanga,Lushoto,Lushoto,Chakechake,41059,1.55,Sharp brothers group,5,0,5,,0,CMG,,,-4.7945813,38.2924706
Tanga,Lushoto,Shume,Gologolo,41070,14,Jitegemee group ,5,5,0,,0,CMG,,,-4.7023729,38.2274095
Tanga,Lushoto,Shume,Gologolo,41070,14,Wazawa group,5,5,0,,0,CMG,,,-4.7023729,38.2274095
Tanga,Lushoto,Shume,Gologolo,41070,14,Maua Group,5,5,0,,0,CMG,,,-4.7023729,38.2274095
Tanga,Lushoto,Shume,Gologolo,41070,14,Furaha Group,2,0,2,,0,CMG,,,-4.7023729,38.2274095
Tanga,Lushoto,Shume,Gologolo,41070,14,Tupambane Group,5,0,5,,0,CMG,,,-4.7023729,38.2274095
Tanga,Lushoto,Shume,Viti,41021,22.92,Mwendokasi group ,5,5,0,,0,CMG,,,-4.6876252,38.2372901
Tanga,Lushoto,Shume,Viti,41021,22.92,Mshikamano group ,6,6,0,,0,CMG,,,-4.6876252,38.2372901
Tanga,Lushoto,Shume,Viti,41021,22.92,Mkombozi group,5,5,0,,0,CMG,,,-4.6876252,38.2372901
Tanga,Lushoto,Shume,Viti,41021,22.92,Juhudi group,6,6,0,,0,CMG,,,-4.6876252,38.2372901
Tanga,Lushoto,Shume,Viti,41021,22.92,Vijana chapakazi group,5,0,5,,0,CMG,,,-4.6876252,38.2372901
Tanga,Lushoto,Shume,Viti,41021,22.92,Amani group,5,5,0,,0,CMG,,,-4.6876252,38.2372901
Tanga,Lushoto,Shume,Viti,41021,22.92,Jikwamue group ,5,5,0,,0,CMG,,,-4.6876252,38.2372901
Tanga,Lushoto,Shume,Viti,41021,22.92,Umoja group,5,5,0,,0,CMG,,,-4.6876252,38.2372901
Tanga,Lushoto,Shume,Viti,41021,22.92,Faraja group ,5,5,0,,0,CMG,,,-4.6876252,38.2372901
Tanga,Lushoto,Shume,Mavumo,41021,22.92,Umoja ni Nguvu,14,7,7,,0,Ushirika,,,-4.6938148,38.2109513
Tanga,Lushoto,Shume,Mavumo,41021,22.92,Tupendane Group,5,5,0,,0,CMG,,,-4.6938148,38.2109513
Tanga,Lushoto,Shume,Mavumo,41021,22.92,Mama Wear Collection Group,5,5,0,,0,CMG,,,-4.6938148,38.2109513
Tanga,Lushoto,Shume,Mavumo,41021,22.92,Misitu Group,5,5,0,,0,CMG,,,-4.6938148,38.2109513
Tanga,Lushoto,Manolo,Manolo,41021,22.92,Hekima group TASSAF,9,8,2,,0,CMG,,,-4.6216924,38.2230292
Tanga,Lushoto,Manolo,Manolo,41021,22.92,Hekima group,6,6,0,,0,CMG,,,-4.6216924,38.2230292
Tanga,Lushoto,Mbaru,Mamboleo,41022,18.18,Nia njema group,6,6,0,,0,CMG,,,-4.5381744,38.2108531
Tanga,Lushoto,Mbaru,Mamboleo,41022,18.18,Nyota njema group,20,6,14,,0,CMG,,,-4.5381744,38.2108531
Tanga,Lushoto,Mbaru,Mamboleo,41022,18.18,Kajiungeni group,30,23,7,,0,CMG,,,-4.5381744,38.2108531
Tanga,Lushoto,Mbaru,Mamboleo,41022,18.18,Nia njema group (Kalumele),29,29,0,,0,CMG,,,-4.5381744,38.2108531
Tanga,Lushoto,Mbaru,Tema,41022,18.18,Neema group,15,13,2,,0,CMG,,,-4.5109136,38.2348327
Tanga,Lushoto,Mbaru,Tema,41022,18.18,Jitegemee group,30,23,7,Dis,7,CMG,,,-4.5109136,38.2348327
Tanga,Lushoto,Mbaru,Tema,41022,18.18,Mlezi group,32,28,4,,0,CMG,,,-4.5109136,38.2348327
Tanga,Lushoto,Mbaru,Tema,41022,18.18,Hapa kazi group,39,23,16,,0,CMG,,,-4.5109136,38.2348327
Tanga,Lushoto,Mbaru,Tema,41022,18.18,Chemkachemka group,14,13,1,,0,CMG,,,-4.5109136,38.2348327
Tanga,Lushoto,Mbaru,Tema,41022,18.18,Mshikamano group,28,26,2,,0,CMG,,,-4.5109136,38.2348327
Tanga,Lushoto,Mnazi,Mtae,41109,12.7,Amani group ,5,5,0,,0,CMG,,,-4.4500837,38.2581622
Tanga,Lushoto,Mnazi,Mtae,41109,12.7,Imani group,5,5,0,,0,CMG,,,-4.4500837,38.2581622
Tanga,Lushoto,Mnazi,Mtae,41109,12.7,Jiamini group,5,5,0,,0,CMG,,,-4.4500837,38.2581622
Tanga,Lushoto,Mnazi,Mtae,41109,12.7,Juhudi group ,5,5,0,,0,CMG,,,-4.4500837,38.2581622
Tanga,Lushoto,Mnazi,Mtae,41109,12.7,Maendeleo group,5,5,0,,0,CMG,,,-4.4500837,38.2581622
Tanga,Lushoto,Mnazi,Mtae,41109,12.7,Mshikamano group ,5,5,0,,0,CMG,,,-4.4500837,38.2581622
Tanga,Lushoto,Mnazi,Mtae,41109,12.7,Neema group,5,5,0,,0,CMG,,,-4.4500837,38.2581622
Tanga,Lushoto,Mnazi,Mtae,41109,12.7,Tumaini group,5,5,0,,0,CMG,,,-4.4500837,38.2581622
Tanga,Lushoto,Mnazi,Mtae,41109,12.7,Umoja group ,5,5,0,,0,CMG,,,-4.4500837,38.2581622
Tanga,Lushoto,Mnazi,Mtae,41109,12.7,Upendo group ,5,5,0,,0,CMG,,,-4.4500837,38.2581622
Tanga,Lushoto,Mnazi,Mnazi,41109,12.7,Songambele group,5,5,0,,0,CMG,,,-4.4261229,38.2832329
Tanga,Lushoto,Mnazi,Mnazi,41109,12.7,Wazalendo group,7,7,0,,0,CMG,,,-4.4261229,38.2832329
Tanga,Lushoto,Mnazi,Mnazi,41109,12.7,Umoja wa Akina mama group,5,5,0,,0,CMG,,,-4.4261229,38.2832329
Tanga,Lushoto,Mnazi,Mnazi,41109,12.7,Upendo group (Mkundi Mbaru),5,5,0,,0,CMG,,,-4.4261229,38.2832329
Tanga,Lushoto,Mnazi,Mnazi,41109,12.7,Songambele group,5,5,0,,0,CMG,,,-4.4261229,38.2832329
Tanga,Lushoto,Rangwi ,Emao,41064,17.23,Upendo group,14,13,1,,0,CMG,,,-4.5531498,38.2776412
Tanga,Lushoto,Rangwi ,Emao,41064,17.23,Mwangaza group,5,5,0,,0,CMG,,,-4.5531498,38.2776412
Tanga,Lushoto,Rangwi ,Emao,41064,17.23,Uadilifu group,5,0,5,,0,CMG,,,-4.5531498,38.2776412
Tanga,Lushoto,Rangwi ,Emao,41064,17.23,Amani group,5,5,0,,0,CMG,,,-4.5531498,38.2776412
Tanga,Lushoto,Rangwi ,Emao,41064,17.23,Jitegemee group ,5,5,0,,0,CMG,,,-4.5531498,38.2776412
Tanga,Lushoto,Rangwi ,Emao,41064,17.23,Upendo group ,5,5,0,,0,CMG,,,-4.5531498,38.2776412
Tanga,Lushoto,Rangwi ,Emao,41064,17.23,Nazareth group,5,5,0,,0,CMG,,,-4.5531498,38.2776412
Tanga,Lushoto,Rangwi ,Emao,41064,17.23,Furaha group ,5,5,0,,0,CMG,,,-4.5531498,38.2776412
Tanga,Lushoto,Rangwi ,Emao,41064,17.23,Umoja group,5,5,0,,0,CMG,,,-4.5531498,38.2776412
Tanga,Lushoto,Rangwi ,Emao,41064,17.23,Juhudi group,5,5,0,,0,CMG,,,-4.5531498,38.2776412
Tanga,Lushoto,Mlola,Lwandai,41108,18.61,Maendeleo group ,5,5,0,,0,CMG,,,-4.632081,38.4262498
Tanga,Lushoto,Mlola,Lwandai,41108,18.61, Jitegemee group ,5,5,0,,0,CMG,,,-4.632081,38.4262498
Tanga,Lushoto,Mlola,Lwandai,41108,18.61,Nguvu kazi group,5,5,0,,0,CMG,,,-4.632081,38.4262498
Tanga,Lushoto,Mlola,Lwandai,41004,24.42,Mshikamano group ,5,5,0,,0,CMG,,,-4.6425903,38.460856
Tanga,Lushoto,Mlola,Lwandai,41004,24.42,Gombelo group ,66,44,22,,0,CMG,,,-4.6425903,38.460856
Tanga,Lushoto,Gare,Yamba,41031,13.6,Upendo women group,10,10,0,,0,CMG,,,-4.7967932,38.3639602
Tanga,Lushoto,Gare,Yamba,41031,13.6,Jitegemee youth group,5,0,5,,0,CMG,,,-4.7967932,38.3639602
Tanga,Lushoto,Gare,Yamba,41031,13.6,Samia kwanza group,6,6,0,,0,CMG,,,-4.7967932,38.3639602
Tanga,Lushoto,Gare,Yamba,41031,13.6,Upendo group ,9,8,1,,0,CMG,,,-4.7967932,38.3639602
Tanga,Lushoto,Gare,Yamba,41031,13.6,Tupendane group,6,5,1,,0,CMG,,,-4.7967932,38.3639602
Tanga,Lushoto,Gare,Yamba,41031,13.6,Muivano group ,14,10,4,,0,CMG,,,-4.7967932,38.3639602
Tanga,Lushoto,Ubiri,Kizara,41074,9,Mshikamano group,61,55,6,,0,CMG,,,-4.8286338,38.3388045
Tanga,Lushoto,Ubiri,Kizara,41074,9,Tupendane group,9,9,0,,0,CMG,,,-4.8286338,38.3388045
Tanga,Lushoto,Ubiri,Kizara,41074,9,Amani group,50,44,6,,0,CMG,,,-4.8286338,38.3388045
Tanga,Lushoto,Ubiri,Kizara,41074,9,Juhudi group ,30,26,4,,0,CMG,,,-4.8286338,38.3388045
Tanga,Lushoto,Ubiri,Kizara,41074,9,Tuko Pamoja,25,15,10,,,CMG,,,-4.8286338,38.3388045
Tanga,Lushoto,Kwemashai,Nguru,41074,9,Wema group,13,12,1,,0,CMG,,,-4.8023091,38.3208305
Tanga,Lushoto,Kwemashai,Nguru,41074,9,Umoja group,23,22,1,,0,CMG,,,-4.8023091,38.3208305
Tanga,Lushoto,Kwai,Kireti,41038,16,Mshikamano group ,75,50,25,,0,CMG,,,-4.7337775,38.3602064
Tanga,Lushoto,Kwai,Kireti,41038,16,Nizamu group,67,39,28,,0,CMG,,,-4.7337775,38.3602064
Tanga,Lushoto,Kwai,Kireti,41038,16,Juhudi group,24,14,10,,0,CMG,,,-4.7337775,38.3602064
Tanga,Lushoto,Kwai,Kireti,41038,16,Umoja A group,20,10,10,,0,CMG,,,-4.7337775,38.3602064
Tanga,Lushoto,Kwai,Kireti,41038,16,Umoja B group,20,13,7,,0,CMG,,,-4.7337775,38.3602064
Tanga,Lushoto,Kwai,Kireti,41038,16,Maarifa group,31,22,9,,0,CMG,,,-4.7337775,38.3602064
Tanga,Lushoto,Migambo,Milungui,41016,14,Muivano group,10,9,1,,0,CMG,,,-4.7502263,38.3632791
Tanga,Lushoto,Migambo,Milungui,41016,14,Umoja ni nguvu group,10,9,1,,0,CMG,,,-4.7580379,38.3818042
Tanga,Lushoto,Migambo,Milungui,41016,14,Juhudi group,6,6,0,,0,CMG,,,-4.7580379,38.3818042
Tanga,Lushoto,Hemtoe,Mwangoi,41018,11,Bahati group,43,29,12,,0,CMG,,,-4.5940852,38.3513167
Tanga,Lushoto,Hemtoe,Mwangoi,41018,11,Mshikamano group,13,10,3,,0,CMG,,,-4.5940852,38.3513167
Tanga,Lushoto,Hemtoe,Mwangoi,41018,11,Muungano group,12,10,2,,0,CMG,,,-4.5940852,38.3513167
Tanga,Korogwe,Mombo,Jitengeni,42005,30,Upendo group,19,16,3,,0,CMG,,,-4.895682,38.2381865
Tanga,Korogwe,Mombo,Jitengeni,42005,30,Samata group,5,3,2,,0,CMG,,,-4.895682,38.2381865
Tanga,Korogwe,Mombo,Jitengeni,42005,30,Azimio group,5,5,0,,0,CMG,,,-4.895682,38.2381865
Tanga,Korogwe,Mombo,Jitengeni,42005,30,Jikomboe group,5,5,0,,0,CMG,,,-4.895682,38.2381865
Tanga,Korogwe,Mombo,Jitengeni,42005,30,Zinduka group,6,1,5,,0,CMG,,,-4.895682,38.2381865
Tanga,Korogwe,Mombo,Jitengeni,42005,30,Juhudi group,6,6,0,,0,CMG,,,-4.895682,38.2381865
Tanga,Korogwe,Mombo,Jitengeni,42005,30,Tunaweza group,5,5,0,,0,CMG,,,-4.895682,38.2381865
Tanga,Korogwe,Mombo,Jitengeni,42005,30,Busara group,5,5,0,,0,CMG,,,-4.895682,38.2381865
Tanga,Korogwe,Mombo,Jitengeni,42005,30,Mshikamano group,13,12,1,,0,CMG,,,-4.895682,38.2381865
Tanga,Korogwe,Kerenge,Kerenge Kibaoni,42021,12,Tumaini group,13,12,1,,0,CMG,,,-5.0063854,38.5523563
Tanga,Korogwe,Kerenge,Kerenge Kibaoni,42021,12,Hawavumi lakini wamo group,24,18,6,,0,CMG,,,-5.0063854,38.5523563
Tanga,Korogwe,Mashewa,Kwetonge,42029,19,Asali dhahabu group,7,3,4,,0,CMG,,,-4.8051187,38.6743796
Tanga,Korogwe,Mashewa,Kwetonge,42029,19,Jitume group,20,9,11,,0,CMG,,,-4.8051187,38.6743796
Tanga,Korogwe,Mashewa,Mashewa,42029,19,Watafutaji group,5,1,4,,0,CMG,,,-4.8287686,38.6951658
Tanga,Korogwe,Mashewa,Mashewa,42029,19,Abbas group,1,0,1,Dis,1,CMG,,,-4.8287686,38.6951658
Tanga,Korogwe,kizara,Bombo,42029,19,kizara sisal group,30,4,26,,0,CMG,,,-4.8794235,38.673953
Tanga,Korogwe,kizara,Bombo,42029,19,Furaha group,10,10,0,,0,CMG,,,-4.8794235,38.673953
Tanga,Korogwe,kizara,Bombo,42029,19,Boresha Bodaboda group,5,1,4,,0,CMG,,,-4.8794235,38.673953
Tanga,Korogwe,Mkomazi ,Buiko,42038,32,Nguvu kazi group,19,12,7,,0,CMG,,,-4.6816068,38.0335405
Tanga,Korogwe,Mkomazi ,Buiko,42038,32,Amani group ,22,22,0,,0,CMG,,,-4.6816068,38.0335405
Tanga,Korogwe,Mkomazi ,Buiko,42038,32, Bodaboda Buiko group,73,0,73,,0,CMG,,,-4.8808831,38.0540793
Tanga,Korogwe,Makuyuni ,Mpirani,42008,15,Furaha group,11,10,1,,0,CMG,,,-5.093924,38.3180225
Tanga,Korogwe,Makuyuni ,Mpirani,42008,15,Mwivano group,29,29,0,,0,CMG,,,-5.093924,38.3180225
Tanga,Korogwe,Mswaha,Mswaha majengo,42008,15,Tuidima group,15,13,2,,0,CMG,,,-5.1175411,38.2991026
Tanga,Korogwe,Mswaha,Mswaha majengo,42008,15,Ikunda group,10,10,0,,0,CMG,,,-5.1175411,38.2991026
Tanga,Korogwe,Mswaha,Mswaha majengo,42008,15,Nyemi group,15,8,7,,0,CMG,,,-5.1175411,38.2991026
Tanga,Korogwe,Mswaha,Mswaha Darajani,42008,15,Mwanzo mgumu group,14,12,2,,0,CMG,,,-5.1543275,38.3144933
Tanga,Korogwe,Mswaha,Mswaha Darajani,42008,15,Iyanga group,26,20,6,,0,CMG,,,-5.1543275,38.3144933
Tanga,Korogwe,Makuyuni,Makuyuni ,42019,21,Mehanga nyiko group,11,11,0,,0,CMG,,,-4.9828651,38.3599605
Tanga,Korogwe,Makuyuni,Makuyuni ,42019,21,Mwamke vijana group,10,0,10,,0,CMG,,,-4.9828651,38.3599605
Tanga,Korogwe,Makuyuni,Makuyuni ,42019,21,TBD,5,0,5,,0,CMG,,,-4.9828651,38.3599605
Tanga,Korogwe,Bungu,Bungu,42052,10,Bungu Patom group,32,23,9,,0,CMG,,,-5.0078611,38.3654737
Tanga,Korogwe,Bungu,Bungu,42052,10,Faraja group,18,10,8,,0,CMG,,,-5.0078611,38.3654737
Tanga,Korogwe,Nunguwi,Kwemshai,45052,10,Zinduka group ,25,20,5,,0,CMG,,,-4.9924016,38.3363352
Tanga,Korogwe,Nunguwi,Kwemshai,45052,10,Inuka group,28,18,10,,0,CMG,,,-4.9924016,38.3363352
Tanga,Korogwe,Nunguwi,Kwemshai,45052,10,Jipe moyo group,37,23,14,,0,CMG,,,-4.9924016,38.3363352
Tanga,Korogwe,Nunguwi,Kwemshai,45052,10,Jikwamue group,38,26,12,,0,CMG,,,-4.9924016,38.3363352
Tanga,Korogwe,Lutindi ,Lutindi,42010,17.5,Lutindi Tea heras group,14,9,5,,0,CMG,,,-5.0512477,38.3899032
Tanga,Korogwe,Lutindi ,Lutindi,42010,17.5,Kazimoto group,25,21,4,,0,CMG,,,-5.0512477,38.3899032
Tanga,Korogwe,Lutindi ,Lutindi,42010,17.5,Mshikamano group,29,22,7,,0,CMG,,,-5.0512477,38.3899032
Tanga,Korogwe,Bungu,Bungu Muheza ,42003,7,Jitahidi group,32,21,11,,0,CMG,,,-5.0287117,38.4277194